[{"nombre": "A ETERNELLE", "lat": 19.0243512, "lng": -98.23889267, "municipio": "Puebla", "tipo": "salud"}, {"nombre": "A M TERAPIA FISICA Y REHABILKITACION", "lat": 18.47522056, "lng": -97.39335969, "municipio": "Tehuacán", "tipo": "salud"}, {"nombre": "A VIDA CASA DE MEDICINA", "lat": 19.02868272, "lng": -98.27871269, "municipio": "San Andrés Cholula", "tipo": "salud"}, {"nombre": "A&F DENTAL", "lat": 19.16546574, "lng": -98.30603163, "municipio": "San Miguel Xoxtla", "tipo": "salud"}, {"nombre": "A.R. PODOLOGOS", "lat": 18.46720155, "lng": -97.41688185, "municipio": "Tehuacán", "tipo": "salud"}, {"nombre": "AA EMPERADORES SUR", "lat": 18.99321651, "lng": -98.22624483, "municipio": "Puebla", "tipo": "salud"}, {"nombre": "AA HAGACE SU VOLUNTAD", "lat": 19.06331842, "lng": -98.11696685, "municipio": "Puebla", "tipo": "salud"}, {"nombre": "AARON", "lat": 19.05115956, "lng": -98.21975828, "municipio": "Puebla", "tipo": "salud"}, {"nombre": "AB DENTAL ORTODONCIA", "lat": 18.90256082, "lng": -98.44453575, "municipio": "Atlixco", "tipo": "salud"}, {"nombre": "ABARROTES MONTERO", "lat": 18.88390448, "lng": -97.72595938, "municipio": "Tecamachalco", "tipo": "salud"}, {"nombre": "ABC DENTAL", "lat": 18.99403642, "lng": -98.20103937, "municipio": "Puebla", "tipo": "salud"}, {"nombre": "ABILITE", "lat": 19.05487888, "lng": -98.22797001, "municipio": "Puebla", "tipo": "salud"}, {"nombre": "ACC LAB LABORATORIOS MEDICOS", "lat": 18.95759805, "lng": -97.79881921, "municipio": "Acatzingo", "tipo": "salud"}, {"nombre": "ACC LABORATORIOS", "lat": 18.90234535, "lng": -97.96980108, "municipio": "Tecali de Herrera", "tipo": "salud"}, {"nombre": "ACCESORIAS PSICOLOGICAS", "lat": 19.06499224, "lng": -98.12467667, "municipio": "Puebla", "tipo": "salud"}, {"nombre": "ACCESS CONSCIOUSNESS TERAPIA EMOCIONAL", "lat": 19.02284358, "lng": -98.21520692, "municipio": "Puebla", "tipo": "salud"}, {"nombre": "ACCLAB", "lat": 18.9652852, "lng": -97.90370526, "municipio": "Tepeaca", "tipo": "salud"}, {"nombre": "ACCLAB", "lat": 18.7354131, "lng": -97.91056669, "municipio": "Molcaxac", "tipo": "salud"}, {"nombre": "ACNE FACIALES", "lat": 19.04820671, "lng": -98.2059102, "municipio": "Puebla", "tipo": "salud"}, {"nombre": "ACOMPAÑAMIENTO PSICOLOGICO Y EMOCIONAL", "lat": 19.28313643, "lng": -98.46682999, "municipio": "San Martín Texmelucan", "tipo": "salud"}, {"nombre": "ACOMPAÑA-T", "lat": 19.04761057, "lng": -98.14965428, "municipio": "Puebla", "tipo": "salud"}, {"nombre": "ACTIMOC REHABILITACION ERE", "lat": 19.79599962, "lng": -97.32320499, "municipio": "Xiutetelco", "tipo": "salud"}, {"nombre": "ACTIVACION DE ENERGIAS DE SANACION", "lat": 19.05408836, "lng": -98.21843766, "municipio": "Puebla", "tipo": "salud"}, {"nombre": "ACTIVATE FISIOTERAPIA INTEGRAL", "lat": 19.0723794, "lng": -98.26826804, "municipio": "San Pedro Cholula", "tipo": "salud"}, {"nombre": "ACUMERIDIAN ACUPUNTURA CHINA", "lat": 18.89494657, "lng": -98.4289606, "municipio": "Atlixco", "tipo": "salud"}, {"nombre": "ACUPUNTURA MEDICA Y REHABILITACION INTEGRAL", "lat": 19.28678237, "lng": -97.34225986, "municipio": "Guadalupe Victoria", "tipo": "salud"}, {"nombre": "ACUPUNTURA MEDICINA Y NUTRICION", "lat": 18.89829928, "lng": -98.43673881, "municipio": "Atlixco", "tipo": "salud"}, {"nombre": "ACUPUNTURA PUEBLA", "lat": 19.02673163, "lng": -98.19693235, "municipio": "Puebla", "tipo": "salud"}, {"nombre": "ACUPUNTURA QI", "lat": 19.03711551, "lng": -98.20558709, "municipio": "Puebla", "tipo": "salud"}, {"nombre": "ACUPUNTURA SINMED CONSULTORIO", "lat": 19.02392942, "lng": -98.2191113, "municipio": "Puebla", "tipo": "salud"}, {"nombre": "ADARA COSMETOLOGIA INTEGRAL", "lat": 19.00806921, "lng": -98.19825736, "municipio": "Puebla", "tipo": "salud"}, {"nombre": "ADMINISTRACION", "lat": 19.03783886, "lng": -98.20497854, "municipio": "Puebla", "tipo": "salud"}, {"nombre": "ADMINISTRACION MEDICOS ESPECIALISTAS", "lat": 19.04184754, "lng": -98.21712834, "municipio": "Puebla", "tipo": "salud"}, {"nombre": "ADN BIOMEDICA", "lat": 19.10584005, "lng": -98.22369129, "municipio": "Puebla", "tipo": "salud"}, {"nombre": "ADN DENTAL", "lat": 19.02729061, "lng": -98.1971021, "municipio": "Puebla", "tipo": "salud"}, {"nombre": "ADN EXAMEN LABORATORIO DE PRUEBAS GENETICAS", "lat": 19.02733456, "lng": -98.21671114, "municipio": "Puebla", "tipo": "salud"}, {"nombre": "AF FISIOTERAPEUTAS", "lat": 19.08762558, "lng": -98.16090326, "municipio": "Puebla", "tipo": "salud"}, {"nombre": "AFO DENTAL", "lat": 19.04571684, "lng": -98.19928909, "municipio": "Puebla", "tipo": "salud"}, {"nombre": "AGENCIA DE ENFERMERIA CLB", "lat": 19.04147219, "lng": -98.03777036, "municipio": "Amozoc", "tipo": "salud"}, {"nombre": "AGENCIAS DE SERVICIOS", "lat": 18.32026095, "lng": -97.34569589, "municipio": "San Gabriel Chilac", "tipo": "salud"}, {"nombre": "AGILITI REHAB CENTER", "lat": 19.04319818, "lng": -98.22716571, "municipio": "Puebla", "tipo": "salud"}, {"nombre": "AGRIPINO VAZQUEZ VAZQUEZ", "lat": 19.04196778, "lng": -98.21911696, "municipio": "Puebla", "tipo": "salud"}, {"nombre": "AGROMEDICA VETERINARIA LA HERRADURA", "lat": 20.26509384, "lng": -97.87694707, "municipio": "Zihuateutla", "tipo": "salud"}, {"nombre": "AGUA VIVA", "lat": 19.04080214, "lng": -98.04276279, "municipio": "Amozoc", "tipo": "salud"}, {"nombre": "AGUA VIVA CENTRO DE AYUDA PSICOLOGICA", "lat": 19.08635527, "lng": -98.20945157, "municipio": "Puebla", "tipo": "salud"}, {"nombre": "ALBERTO LOPEZ MARTINEZ", "lat": 19.2368021, "lng": -98.50038052, "municipio": "San Felipe Teotlalcingo", "tipo": "salud"}, {"nombre": "ALCOHOLICOSANONIMOS", "lat": 19.24802423, "lng": -98.40550967, "municipio": "San Martín Texmelucan", "tipo": "salud"}, {"nombre": "ALDEBARAN GRUPO MEDICO", "lat": 19.04372401, "lng": -98.1888897, "municipio": "Puebla", "tipo": "salud"}, {"nombre": "ALDENT CONSULTORIO DENTAL", "lat": 19.03793025, "lng": -98.24212538, "municipio": "Puebla", "tipo": "salud"}, {"nombre": "ALEJANDRA CASTRO ORTODONCISTA", "lat": 19.05688931, "lng": -98.23052434, "municipio": "Puebla", "tipo": "salud"}, {"nombre": "ALERGIA INMUNOLOGIA COSULTORIO MEDICO DE", "lat": 19.0456465, "lng": -98.21311572, "municipio": "Puebla", "tipo": "salud"}, {"nombre": "ALERGIA PEDIATRICA DR PAZ", "lat": 19.0218314, "lng": -98.18921358, "municipio": "Puebla", "tipo": "salud"}, {"nombre": "ALERGIOLOGIA INMUNOLOGIA Y PEDIATRIA", "lat": 19.02213529, "lng": -98.23463108, "municipio": "Puebla", "tipo": "salud"}, {"nombre": "ALERGOLO", "lat": 19.03713307, "lng": -98.199626, "municipio": "Puebla", "tipo": "salud"}, {"nombre": "ALERGOLOGO PEDIATRA", "lat": 19.03078108, "lng": -98.22899097, "municipio": "Puebla", "tipo": "salud"}, {"nombre": "ALERGOMEDICA", "lat": 19.0167691, "lng": -98.20037476, "municipio": "Puebla", "tipo": "salud"}, {"nombre": "ALGOLOGO INTERVENCIONISTA", "lat": 19.02126341, "lng": -98.26604853, "municipio": "San Andrés Cholula", "tipo": "salud"}, {"nombre": "ALICIA ANAID VEGA CORNEJO", "lat": 19.05641111, "lng": -98.22261958, "municipio": "Puebla", "tipo": "salud"}, {"nombre": "ALID CENTRO DE PSICOTERAPIA", "lat": 19.07205612, "lng": -98.20994423, "municipio": "Puebla", "tipo": "salud"}, {"nombre": "ALIDENT ESPECIALIDADES ODONTOLOGICAS", "lat": 19.01628995, "lng": -98.2144063, "municipio": "Puebla", "tipo": "salud"}, {"nombre": "ALIRE FISIOTERAPIA Y NUTRICION INTEGRAL", "lat": 19.01628995, "lng": -98.2144063, "municipio": "Puebla", "tipo": "salud"}, {"nombre": "ALIVIA CLINICA DE ALTA ESPECIALIDAD", "lat": 19.03785146, "lng": -98.22339476, "municipio": "Puebla", "tipo": "salud"}, {"nombre": "ALIVIATHE FISIO", "lat": 18.98148193, "lng": -98.23571375, "municipio": "Puebla", "tipo": "salud"}, {"nombre": "ALLEZ SERVICIOS OPTICOS", "lat": 19.15605447, "lng": -98.40670114, "municipio": "Huejotzingo", "tipo": "salud"}, {"nombre": "ALMAR LABORATORIOS LOS REYES DE JUAREZ", "lat": 18.94703809, "lng": -97.81206825, "municipio": "Los Reyes de Juárez", "tipo": "salud"}, {"nombre": "ALMAR LABORATORIOS TECAMACHALCO", "lat": 18.96946581, "lng": -97.90353786, "municipio": "Tepeaca", "tipo": "salud"}, {"nombre": "ALPHABIOTISMO", "lat": 19.05583787, "lng": -98.21819425, "municipio": "Puebla", "tipo": "salud"}, {"nombre": "ALSA ORTOPEDICOS", "lat": 19.84992103, "lng": -97.49587636, "municipio": "Tlatlauquitepec", "tipo": "salud"}, {"nombre": "ALTERNA CENTRO DE BIENESTAR INTEGRAL", "lat": 19.03037774, "lng": -98.20672945, "municipio": "Puebla", "tipo": "salud"}, {"nombre": "AM TERAPIA FISICA Y REHABILITACION", "lat": 18.47433109, "lng": -97.39766169, "municipio": "Tehuacán", "tipo": "salud"}, {"nombre": "AMBULANCIAS UAM UNIDAD DE ASISTENCIA MEDICA", "lat": 19.02417998, "lng": -98.2287801, "municipio": "San Andrés Cholula", "tipo": "salud"}, {"nombre": "AMEDTEX LABORATORIO DE ANALISIS CLINICOS", "lat": 19.28540196, "lng": -98.43663541, "municipio": "San Martín Texmelucan", "tipo": "salud"}, {"nombre": "AMOR PARA TUS PIES", "lat": 19.02193038, "lng": -98.21232796, "municipio": "Puebla", "tipo": "salud"}, {"nombre": "AMPARO BANDERA TERAPIAS", "lat": 19.04936923, "lng": -98.21307961, "municipio": "Puebla", "tipo": "salud"}, {"nombre": "ANA CLIN VET", "lat": 19.04203208, "lng": -98.16511382, "municipio": "Puebla", "tipo": "salud"}, {"nombre": "ANA ISABEL BARRIENTOS PEREZ", "lat": 19.05641111, "lng": -98.22261958, "municipio": "Puebla", "tipo": "salud"}, {"nombre": "ANACORT LABORATORIOS", "lat": 18.58310714, "lng": -97.92850201, "municipio": "Tepexi de Rodríguez", "tipo": "salud"}, {"nombre": "ANALIS CLINICOS FEMYLAB", "lat": 19.05657385, "lng": -98.22267305, "municipio": "Puebla", "tipo": "salud"}, {"nombre": "ANALISIS CLINICO DEL DR SIMI", "lat": 19.0068007, "lng": -98.2192647, "municipio": "Puebla", "tipo": "salud"}, {"nombre": "ANALISIS CLINICOS", "lat": 19.0909494, "lng": -98.27023508, "municipio": "Cuautlancingo", "tipo": "salud"}, {"nombre": "ANALISIS CLINICOS", "lat": 19.03783886, "lng": -98.20497854, "municipio": "Puebla", "tipo": "salud"}, {"nombre": "ANALISIS CLINICOS", "lat": 19.27930836, "lng": -98.44206074, "municipio": "San Martín Texmelucan", "tipo": "salud"}, {"nombre": "ANALISIS CLINICOS", "lat": 19.14322862, "lng": -98.1096634, "municipio": "Puebla", "tipo": "salud"}, {"nombre": "ANALISIS CLINICOS ACATZINGO", "lat": 18.99400552, "lng": -97.70878315, "municipio": "General Felipe Ángeles", "tipo": "salud"}, {"nombre": "ANALISIS CLINICOS ADN BIOMEDICA", "lat": 19.0861544, "lng": -98.22188043, "municipio": "Puebla", "tipo": "salud"}, {"nombre": "ANALISIS CLINICOS ALAN HOLLINGHURST", "lat": 19.04019913, "lng": -98.03945685, "municipio": "Amozoc", "tipo": "salud"}, {"nombre": "ANALISIS CLINICOS ALFA Y OMEGA", "lat": 19.28027834, "lng": -98.41901315, "municipio": "San Martín Texmelucan", "tipo": "salud"}, {"nombre": "ANALISIS CLINICOS ANGEL SUCURSAL XICOTEPEC", "lat": 20.27397878, "lng": -97.95711267, "municipio": "Xicotepec", "tipo": "salud"}, {"nombre": "ANALISIS CLINICOS ANGLALAB", "lat": 19.06247891, "lng": -98.13456166, "municipio": "Puebla", "tipo": "salud"}, {"nombre": "ANALISIS CLINICOS BIOQUIMIC", "lat": 19.02863782, "lng": -98.27438128, "municipio": "San Andrés Cholula", "tipo": "salud"}, {"nombre": "ANALISIS CLINICOS CEDINAR", "lat": 18.37798471, "lng": -97.25682503, "municipio": "Ajalpan", "tipo": "salud"}, {"nombre": "ANALISIS CLINICOS CGLABS", "lat": 19.81836257, "lng": -97.81400023, "municipio": "Tetela de Ocampo", "tipo": "salud"}, {"nombre": "ANALISIS CLINICOS DA", "lat": 18.97570118, "lng": -98.30139759, "municipio": "Ocoyucan", "tipo": "salud"}, {"nombre": "ANALISIS CLINICOS DAVILA", "lat": 19.20836752, "lng": -98.37872479, "municipio": "Huejotzingo", "tipo": "salud"}, {"nombre": "ANALISIS CLINICOS DE ACATZINGO", "lat": 18.98029598, "lng": -97.78680375, "municipio": "Acatzingo", "tipo": "salud"}, {"nombre": "ANALISIS CLINICOS DE ACATZINGO", "lat": 19.12019101, "lng": -97.70744536, "municipio": "Soltepec", "tipo": "salud"}, {"nombre": "ANALISIS CLINICOS DE ASIS", "lat": 19.23438654, "lng": -98.50136639, "municipio": "San Felipe Teotlalcingo", "tipo": "salud"}, {"nombre": "ANALISIS CLINICOS DEL DOCTOR SIMI", "lat": 18.9075051, "lng": -98.43611897, "municipio": "Atlixco", "tipo": "salud"}, {"nombre": "ANÁLISIS CLÍNICOS DEL DOCTOR SIMI", "lat": 19.03889973, "lng": -98.21134383, "municipio": "Puebla", "tipo": "salud"}, {"nombre": "ANALISIS CLINICOS DEL DOCTOR SIMI", "lat": 18.87975671, "lng": -97.72674617, "municipio": "Tecamachalco", "tipo": "salud"}, {"nombre": "ANALISIS CLINICOS GANNA", "lat": 18.98209129, "lng": -98.21766457, "municipio": "Puebla", "tipo": "salud"}, {"nombre": "ANALISIS CLINICOS GP", "lat": 20.10278969, "lng": -97.62590363, "municipio": "Huehuetla", "tipo": "salud"}, {"nombre": "ANALISIS CLINICOS GRAM", "lat": 18.9896932, "lng": -98.23059875, "municipio": "Puebla", "tipo": "salud"}, {"nombre": "ANALISIS CLINICOS GUBIA", "lat": 19.03724676, "lng": -98.24808757, "municipio": "San Andrés Cholula", "tipo": "salud"}, {"nombre": "ANALISIS CLINICOS GUBIA", "lat": 20.17317692, "lng": -98.04952535, "municipio": "Huauchinango", "tipo": "salud"}, {"nombre": "ANALISIS CLINICOS GUBIA", "lat": 20.1741872, "lng": -98.03051861, "municipio": "Huauchinango", "tipo": "salud"}, {"nombre": "ANALISIS CLINICOS GUBIA", "lat": 20.04719564, "lng": -98.16325158, "municipio": "Ahuazotepec", "tipo": "salud"}, {"nombre": "ANALISIS CLINICOS GUBIA", "lat": 20.00692779, "lng": -97.85500254, "municipio": "Ahuacatlán", "tipo": "salud"}, {"nombre": "ANALISIS CLINICOS GUBIA", "lat": 20.25663188, "lng": -97.96411236, "municipio": "Xicotepec", "tipo": "salud"}, {"nombre": "ANALISIS CLINICOS GUBIA", "lat": 19.93286231, "lng": -97.95984286, "municipio": "Zacatlán", "tipo": "salud"}, {"nombre": "ANALISIS CLINICOS GUBIA", "lat": 20.46373421, "lng": -97.70334661, "municipio": "Venustiano Carranza", "tipo": "salud"}, {"nombre": "ANALISIS CLINICOS GUBIA", "lat": 19.81778157, "lng": -97.8076326, "municipio": "Tetela de Ocampo", "tipo": "salud"}, {"nombre": "ANALISIS CLINICOS IDERLAB", "lat": 19.0848983, "lng": -98.32581276, "municipio": "San Pedro Cholula", "tipo": "salud"}, {"nombre": "ANALISIS CLINICOS INMUNOGEN", "lat": 19.0760719, "lng": -97.96483155, "municipio": "Tepatlaxco de Hidalgo", "tipo": "salud"}, {"nombre": "ANALISIS CLINICOS KOCH", "lat": 18.85921916, "lng": -97.91841965, "municipio": "Tecali de Herrera", "tipo": "salud"}, {"nombre": "ANALISIS CLINICOS LA GUADALUPANA", "lat": 19.79309182, "lng": -97.32893546, "municipio": "Xiutetelco", "tipo": "salud"}, {"nombre": "ANALISIS CLINICOS LABORATORIO ACATZINGO", "lat": 19.05876843, "lng": -97.71624347, "municipio": "Acatzingo", "tipo": "salud"}, {"nombre": "ANALISIS CLINICOS LABORATORIO GP", "lat": 20.02690306, "lng": -97.64851312, "municipio": "Ixtepec", "tipo": "salud"}, {"nombre": "ANALISIS CLINICOS LACP", "lat": 19.03738423, "lng": -98.2102874, "municipio": "Puebla", "tipo": "salud"}, {"nombre": "ANALISIS CLINICOS LOPEZ", "lat": 20.19426838, "lng": -97.97831767, "municipio": "Huauchinango", "tipo": "salud"}, {"nombre": "ANALISIS CLINICOS MARIA AUXILIADORA", "lat": 18.0918036, "lng": -98.12264396, "municipio": "Guadalupe", "tipo": "salud"}, {"nombre": "ANALISIS CLINICOS MARIA AUXILIADORA", "lat": 18.0822856, "lng": -97.91743703, "municipio": "Petlalcingo", "tipo": "salud"}, {"nombre": "ANALISIS CLINICOS OMEGA", "lat": 18.91562461, "lng": -97.82575033, "municipio": "Cuapiaxtla de Madero", "tipo": "salud"}, {"nombre": "ANALISIS CLINICOS PHARMA", "lat": 19.28002226, "lng": -98.43512278, "municipio": "San Martín Texmelucan", "tipo": "salud"}, {"nombre": "ANALISIS CLINICOS RAMIREZ", "lat": 20.27676885, "lng": -97.96338934, "municipio": "Xicotepec", "tipo": "salud"}, {"nombre": "ANALISIS CLINICOS RUIZ", "lat": 18.90621061, "lng": -98.43655957, "municipio": "Atlixco", "tipo": "salud"}, {"nombre": "ANALISIS CLINICOS SAN MATEO", "lat": 19.12225163, "lng": -98.36171156, "municipio": "Juan C. Bonilla", "tipo": "salud"}, {"nombre": "ANALISIS CLINICOS SAN PABLO", "lat": 19.09176738, "lng": -98.19934446, "municipio": "Puebla", "tipo": "salud"}, {"nombre": "ANALISIS CLINICOS SANTA MARIA", "lat": 19.21623879, "lng": -97.8242045, "municipio": "Nopalucan", "tipo": "salud"}, {"nombre": "ANALISIS CLINICOS SIN NOMBRE", "lat": 19.13392172, "lng": -98.2835736, "municipio": "Coronango", "tipo": "salud"}, {"nombre": "ANALISIS CLINICOS TECNOLAB", "lat": 18.48347719, "lng": -98.66134511, "municipio": "Chietla", "tipo": "salud"}, {"nombre": "ANALISIS CLINICOS TICOLAB", "lat": 19.07090864, "lng": -98.48736681, "municipio": "San Nicolás de los Ranchos", "tipo": "salud"}, {"nombre": "ANALISIS CLINICOS VIGOLAB", "lat": 19.08892447, "lng": -98.16297471, "municipio": "Puebla", "tipo": "salud"}, {"nombre": "ANALISIS MICROBIOLOGICOS 2000", "lat": 19.07724771, "lng": -97.97432649, "municipio": "Tepatlaxco de Hidalgo", "tipo": "salud"}, {"nombre": "ANALITICA LABORATORIO CLINICO", "lat": 19.09799682, "lng": -97.53172484, "municipio": "Aljojuca", "tipo": "salud"}, {"nombre": "ANATOMIA PATOLOGICA Y CITOLOGIA EXFOLIATIVA", "lat": 19.03042916, "lng": -98.19909144, "municipio": "Puebla", "tipo": "salud"}, {"nombre": "ANBAR LABORATORIO CLINICO", "lat": 19.04028378, "lng": -98.11452477, "municipio": "Amozoc", "tipo": "salud"}, {"nombre": "ANDALI", "lat": 19.04543394, "lng": -98.24113142, "municipio": "Puebla", "tipo": "salud"}, {"nombre": "ANDERI", "lat": 19.02129088, "lng": -98.20824297, "municipio": "Puebla", "tipo": "salud"}, {"nombre": "ANDREA BAEZ GOMEZ", "lat": 19.01827294, "lng": -98.21932566, "municipio": "Puebla", "tipo": "salud"}, {"nombre": "ANDREA PARDO BERRA PSIQUIATRIA Y SALUD MENTAL", "lat": 19.05678189, "lng": -98.20928107, "municipio": "Puebla", "tipo": "salud"}, {"nombre": "ANEMA SPA", "lat": 18.89473337, "lng": -98.42909, "municipio": "Atlixco", "tipo": "salud"}, {"nombre": "ANESTESIOLOGIA MEDICINA DEL DOLOR ALGOLOGIA INTERVENCIONISTA", "lat": 19.02213529, "lng": -98.23463108, "municipio": "Puebla", "tipo": "salud"}, {"nombre": "ANESTESIOLOGIA Y MEDICINA DEL DOLOR", "lat": 19.02213522, "lng": -98.23463084, "municipio": "Puebla", "tipo": "salud"}, {"nombre": "ANEXO SALUD MENTAL UNA TAZA DE CAFE", "lat": 18.9570108, "lng": -98.23844675, "municipio": "Puebla", "tipo": "salud"}, {"nombre": "ANGEL SPA", "lat": 19.04128022, "lng": -98.17859135, "municipio": "Puebla", "tipo": "salud"}, {"nombre": "ANGELOPOLIS DENTAL CARE", "lat": 19.00596447, "lng": -98.2655982, "municipio": "San Andrés Cholula", "tipo": "salud"}, {"nombre": "ANGIOLOGIA", "lat": 19.04540036, "lng": -98.17884456, "municipio": "Puebla", "tipo": "salud"}, {"nombre": "ANGIOLOGIA Y CIRUGIA BASCULAR", "lat": 19.02213529, "lng": -98.23463108, "municipio": "Puebla", "tipo": "salud"}, {"nombre": "ANGIOLOGIA Y CIRUGIA VASCULAR", "lat": 19.02213529, "lng": -98.23463108, "municipio": "Puebla", "tipo": "salud"}, {"nombre": "ANILISIS CLINICOS LINFOCHECK", "lat": 18.96456928, "lng": -98.26818001, "municipio": "Puebla", "tipo": "salud"}, {"nombre": "ANMICLIT LABORATORIO", "lat": 18.3360583, "lng": -97.24379225, "municipio": "Zinacatepec", "tipo": "salud"}, {"nombre": "ANMICLIT LABORATORIOS", "lat": 18.36866722, "lng": -97.29845595, "municipio": "Altepexi", "tipo": "salud"}, {"nombre": "ANNUR FUNDACION", "lat": 19.0537352, "lng": -98.30397745, "municipio": "San Pedro Cholula", "tipo": "salud"}, {"nombre": "ANTALA KUNE SALUD Y CIRUGIA PEDIATRICA", "lat": 19.02213529, "lng": -98.23463108, "municipio": "Puebla", "tipo": "salud"}, {"nombre": "APAPACHOLIXTLI TERAPIAS COMPLEMENTARIAS", "lat": 19.80309063, "lng": -97.36568277, "municipio": "Teziutlán", "tipo": "salud"}, {"nombre": "APICE DENTAL", "lat": 19.84696978, "lng": -98.02831996, "municipio": "Chignahuapan", "tipo": "salud"}, {"nombre": "APLICACION DE INYECCION Y TOMA DE PRESION", "lat": 19.04075917, "lng": -98.04917318, "municipio": "Amozoc", "tipo": "salud"}, {"nombre": "APLICACION DE INYECCIONES", "lat": 18.74859437, "lng": -98.48854798, "municipio": "Huaquechula", "tipo": "salud"}, {"nombre": "APLICACION DE INYECCIONES SIN NOMBRE", "lat": 18.97549421, "lng": -98.44462752, "municipio": "Tianguismanalco", "tipo": "salud"}, {"nombre": "APLICACION DE INYECCIONES SIN NOMBRE", "lat": 19.85830316, "lng": -97.59996032, "municipio": "Zacapoaxtla", "tipo": "salud"}, {"nombre": "APLICACION DE INYECCIONES Y SUEROS SIN NOMBRE", "lat": 19.034778, "lng": -98.14903554, "municipio": "Puebla", "tipo": "salud"}, {"nombre": "APOYO PSICOLOGICO SIN NOMBRE", "lat": 20.17507578, "lng": -98.04336376, "municipio": "Huauchinango", "tipo": "salud"}, {"nombre": "APOYO PSICOPEDAGOGICO SIN NOMBRE", "lat": 19.04854539, "lng": -98.14725616, "municipio": "Puebla", "tipo": "salud"}, {"nombre": "APSE ATENCION PSICOLOGICA Y SALUD EMOCIONAL", "lat": 18.9737293, "lng": -98.26496884, "municipio": "Puebla", "tipo": "salud"}, {"nombre": "AQUI ALINEAMOS TUS HUESOS", "lat": 19.83589134, "lng": -97.42171066, "municipio": "Atempan", "tipo": "salud"}, {"nombre": "AR FISIOTERAPIA", "lat": 19.06840277, "lng": -98.30837092, "municipio": "San Pedro Cholula", "tipo": "salud"}, {"nombre": "AR PODOLOGOS", "lat": 19.0264932, "lng": -98.23683461, "municipio": "San Andrés Cholula", "tipo": "salud"}, {"nombre": "AR PODOLOGOS", "lat": 19.00630706, "lng": -98.26834416, "municipio": "San Andrés Cholula", "tipo": "salud"}, {"nombre": "AR PODOLOGOS", "lat": 18.6058842, "lng": -98.46517938, "municipio": "Izúcar de Matamoros", "tipo": "salud"}, {"nombre": "AR PODOLOGOS", "lat": 19.07974438, "lng": -98.22794394, "municipio": "Puebla", "tipo": "salud"}, {"nombre": "AR PODOLOGOS PIE DIAMANTE", "lat": 18.89373093, "lng": -98.42621193, "municipio": "Atlixco", "tipo": "salud"}, {"nombre": "ARBOL DENT CLINICA ODONTOLOGICA", "lat": 19.05033186, "lng": -98.23124001, "municipio": "Puebla", "tipo": "salud"}, {"nombre": "AREA DE ENFERMERIA Y ATENCION DE PRIMEROS AUXILIOS Y FOMENTO SANITARIO", "lat": 18.90741239, "lng": -98.43529984, "municipio": "Atlixco", "tipo": "salud"}, {"nombre": "AREA DE PSICOLOGIA DEL MUNICIPIO DE QUIMIXTLAN", "lat": 19.25372085, "lng": -97.13543508, "municipio": "Quimixtlán", "tipo": "salud"}, {"nombre": "AREVA DENTAL", "lat": 19.02585941, "lng": -98.26026839, "municipio": "San Andrés Cholula", "tipo": "salud"}, {"nombre": "ARMENTA VISION. OPTICA", "lat": 19.81365148, "lng": -97.3604847, "municipio": "Teziutlán", "tipo": "salud"}, {"nombre": "ARMONIA DENTAL", "lat": 19.02824451, "lng": -98.2058676, "municipio": "Puebla", "tipo": "salud"}, {"nombre": "ARMONY DENT", "lat": 19.03109714, "lng": -98.21001553, "municipio": "Puebla", "tipo": "salud"}, {"nombre": "ARMONYDENT", "lat": 19.03109714, "lng": -98.21001553, "municipio": "Puebla", "tipo": "salud"}, {"nombre": "ARMONYDENT", "lat": 19.03109714, "lng": -98.21001553, "municipio": "Puebla", "tipo": "salud"}, {"nombre": "ARMONYDENT", "lat": 19.03109714, "lng": -98.21001553, "municipio": "Puebla", "tipo": "salud"}, {"nombre": "ART & SMILE", "lat": 19.03331706, "lng": -98.20728865, "municipio": "Puebla", "tipo": "salud"}, {"nombre": "ART MON DENT", "lat": 19.07133804, "lng": -98.26687235, "municipio": "San Pedro Cholula", "tipo": "salud"}, {"nombre": "ARTE DENTAL", "lat": 18.99122119, "lng": -97.44565219, "municipio": "Chalchicomula de Sesma", "tipo": "salud"}, {"nombre": "ARTE DENTAL", "lat": 19.06902612, "lng": -98.23351659, "municipio": "Puebla", "tipo": "salud"}, {"nombre": "ARTE DENTAL CONSULTORIO", "lat": 18.99001842, "lng": -98.22875243, "municipio": "Puebla", "tipo": "salud"}, {"nombre": "ARTEDENTAL CONSULTORIO DENTAL", "lat": 19.05544607, "lng": -98.31020948, "municipio": "San Pedro Cholula", "tipo": "salud"}, {"nombre": "ARTROS FISIOTERAPIA", "lat": 19.88464747, "lng": -97.59029402, "municipio": "Zacapoaxtla", "tipo": "salud"}, {"nombre": "ARYDENT CONSULTORIO DENTAL", "lat": 18.85934932, "lng": -97.37623698, "municipio": "Esperanza", "tipo": "salud"}, {"nombre": "ASBADENT", "lat": 19.06042992, "lng": -98.13250771, "municipio": "Puebla", "tipo": "salud"}, {"nombre": "ASESORES DIAGNOSTICO CLINICO", "lat": 19.05108504, "lng": -98.23152527, "municipio": "Puebla", "tipo": "salud"}, {"nombre": "ASESORES DIAGNOSTICO CLINICO", "lat": 19.01806188, "lng": -98.19217653, "municipio": "Puebla", "tipo": "salud"}, {"nombre": "ASESORES DIAGNOSTICO CLINICO", "lat": 19.06054368, "lng": -98.1965179, "municipio": "Puebla", "tipo": "salud"}, {"nombre": "ASESORES DIAGNOSTICO CLINICO", "lat": 19.06050796, "lng": -98.19667133, "municipio": "Puebla", "tipo": "salud"}, {"nombre": "ASESORES DIAGNOSTICO CLINICO", "lat": 19.06054582, "lng": -98.19652123, "municipio": "Puebla", "tipo": "salud"}, {"nombre": "ASESORIA DE NUTRICION ALINA NUTRISPORT", "lat": 19.06466993, "lng": -98.24673513, "municipio": "Puebla", "tipo": "salud"}, {"nombre": "ASESORIA MEDICA GRATUITA SIN NOMBRE", "lat": 18.6347771, "lng": -98.63424455, "municipio": "Tepexco", "tipo": "salud"}, {"nombre": "ASESORIA NUTRICIONAL SJ", "lat": 19.04588236, "lng": -98.10342361, "municipio": "Amozoc", "tipo": "salud"}, {"nombre": "ASESORIA PSICOLOGICA SIN NOMBRE", "lat": 19.77365118, "lng": -97.55433, "municipio": "Zaragoza", "tipo": "salud"}, {"nombre": "ASMEDICIN", "lat": 19.08878405, "lng": -98.12634333, "municipio": "Puebla", "tipo": "salud"}, {"nombre": "ASOCIACION NACIONAL DE TERAPIA DE JUEGO", "lat": 19.02454369, "lng": -98.21907246, "municipio": "Puebla", "tipo": "salud"}, {"nombre": "ASOCIACION PSICOLOGICA", "lat": 19.07155929, "lng": -98.48597525, "municipio": "San Nicolás de los Ranchos", "tipo": "salud"}, {"nombre": "ATENCION A LA COLUMNA VERTEBRAL CON MEDICINA NATURAL", "lat": 19.05756907, "lng": -98.21797679, "municipio": "Puebla", "tipo": "salud"}, {"nombre": "ATENCION DE PARTOS", "lat": 19.05104741, "lng": -98.4261648, "municipio": "Nealtican", "tipo": "salud"}, {"nombre": "ATENCION DE PRIMEROS AUXILIOS SAN FERNANDO", "lat": 20.00262652, "lng": -97.71274021, "municipio": "Zapotitlán de Méndez", "tipo": "salud"}, {"nombre": "ATENCION DENTAL ALIVIANDO SONRISAS", "lat": 18.96372879, "lng": -97.90176865, "municipio": "Tepeaca", "tipo": "salud"}, {"nombre": "ATENCION ESPECIALIZADA INFANTIL", "lat": 19.25986362, "lng": -98.44916277, "municipio": "San Martín Texmelucan", "tipo": "salud"}, {"nombre": "ATENCION MEDICA INTEGRAL", "lat": 19.05217364, "lng": -98.1691958, "municipio": "Puebla", "tipo": "salud"}, {"nombre": "ATENCION PSICOLOGA", "lat": 19.27932725, "lng": -98.44202306, "municipio": "San Martín Texmelucan", "tipo": "salud"}, {"nombre": "ATENCION PSICOLOGA INTEGRAL TEXMELUCAN", "lat": 19.28871607, "lng": -98.44095922, "municipio": "San Martín Texmelucan", "tipo": "salud"}, {"nombre": "ATENCION PSICOLOGIA A LA COMUNIDAD SIN NOMBRE", "lat": 19.30601047, "lng": -98.44993482, "municipio": "San Martín Texmelucan", "tipo": "salud"}, {"nombre": "ATENCION PSICOLOGICA", "lat": 18.99394555, "lng": -98.22430298, "municipio": "Puebla", "tipo": "salud"}, {"nombre": "ATENCION PSICOLOGICA", "lat": 19.09544359, "lng": -98.20027858, "municipio": "Puebla", "tipo": "salud"}, {"nombre": "ATENCION PSICOLOGICA", "lat": 19.04847691, "lng": -98.1315473, "municipio": "Puebla", "tipo": "salud"}, {"nombre": "ATENCION PSICOLOGICA", "lat": 19.28056104, "lng": -98.4356223, "municipio": "San Martín Texmelucan", "tipo": "salud"}, {"nombre": "ATENCION PSICOLOGICA MENTE Y PROCESO", "lat": 18.69701281, "lng": -98.53423765, "municipio": "Tlapanalá", "tipo": "salud"}, {"nombre": "ATENCION PSICOLOGICA UNIDAD BASICA DE REHABILITACION IXTACAMAXTITLAN", "lat": 19.62348271, "lng": -97.81597211, "municipio": "Ixtacamaxtitlán", "tipo": "salud"}, {"nombre": "ATENCION PSICOLOGICA Y EMOCIONAL", "lat": 19.03706747, "lng": -98.20172391, "municipio": "Puebla", "tipo": "salud"}, {"nombre": "ATENCION Y SERVICIOS DE PSICOLOGIA", "lat": 20.17888105, "lng": -98.04348115, "municipio": "Huauchinango", "tipo": "salud"}, {"nombre": "ATLIXCO DENTAL", "lat": 18.60065408, "lng": -98.46587609, "municipio": "Izúcar de Matamoros", "tipo": "salud"}, {"nombre": "ATMADEV KIDS CENTRO DE DESARROLLO INFANTIL", "lat": 19.05918779, "lng": -98.22814844, "municipio": "Puebla", "tipo": "salud"}, {"nombre": "ATP CLINIC", "lat": 18.98046742, "lng": -98.24331602, "municipio": "Puebla", "tipo": "salud"}, {"nombre": "AUDIO VIVE APARATOS AUDITIVOS", "lat": 19.04647342, "lng": -98.09252749, "municipio": "Amozoc", "tipo": "salud"}, {"nombre": "AUDIOLOGIA DIAGNOTICA", "lat": 19.06480258, "lng": -98.18138278, "municipio": "Puebla", "tipo": "salud"}, {"nombre": "AUDITIVA", "lat": 19.04204466, "lng": -98.20598889, "municipio": "Puebla", "tipo": "salud"}, {"nombre": "AURICULOTERAPIA E INSUMOS EN PUEBLA", "lat": 19.04890576, "lng": -98.20156433, "municipio": "Puebla", "tipo": "salud"}, {"nombre": "AURORA CASTAÑEDA IÑIGUEZ", "lat": 19.03223659, "lng": -98.19806767, "municipio": "Puebla", "tipo": "salud"}, {"nombre": "AURORA DENT", "lat": 19.0152963, "lng": -98.28954247, "municipio": "San Andrés Cholula", "tipo": "salud"}, {"nombre": "AUTOPARTES SIN NOMBRE", "lat": 18.97946945, "lng": -97.78746755, "municipio": "Acatzingo", "tipo": "salud"}, {"nombre": "AUXILIAR CASA DE SALUD LA GUADALUPANA", "lat": 18.9716831, "lng": -98.17371755, "municipio": "Puebla", "tipo": "salud"}, {"nombre": "AUXILIAR DE ENFERMERIA", "lat": 19.23314504, "lng": -97.80411923, "municipio": "Rafael Lara Grajales", "tipo": "salud"}, {"nombre": "AVANTI MEDICAL CENTER", "lat": 19.04261979, "lng": -98.2272029, "municipio": "Puebla", "tipo": "salud"}, {"nombre": "AVANTIA DENT AND SPA", "lat": 19.03307527, "lng": -98.20930015, "municipio": "Puebla", "tipo": "salud"}, {"nombre": "AVANTIA DENT AND SPA", "lat": 19.01706327, "lng": -98.17909819, "municipio": "Puebla", "tipo": "salud"}, {"nombre": "AVANTIA DENT AND SPA", "lat": 18.96674012, "lng": -98.23309285, "municipio": "Puebla", "tipo": "salud"}, {"nombre": "AVANTIA DENT AND SPA", "lat": 19.46692222, "lng": -97.68798355, "municipio": "Libres", "tipo": "salud"}, {"nombre": "AVILA DENTAL", "lat": 18.60338909, "lng": -98.46994571, "municipio": "Izúcar de Matamoros", "tipo": "salud"}, {"nombre": "AXEL SPORT TERAPIA FISICA", "lat": 18.45869392, "lng": -97.39200603, "municipio": "Tehuacán", "tipo": "salud"}, {"nombre": "AYATUNDE CURANDERO PROFESIONAL", "lat": 18.33981805, "lng": -97.24609876, "municipio": "Zinacatepec", "tipo": "salud"}, {"nombre": "B DENTAL CUIDADO DENTAL", "lat": 19.03904791, "lng": -98.24176655, "municipio": "Puebla", "tipo": "salud"}, {"nombre": "BABY GYM ESTIMULACION TEMPRANA", "lat": 18.90869247, "lng": -98.43388784, "municipio": "Atlixco", "tipo": "salud"}, {"nombre": "BALANCE CENTRO", "lat": 19.02829145, "lng": -98.21213017, "municipio": "Puebla", "tipo": "salud"}, {"nombre": "BALANCE SALUD INTEGRAL", "lat": 19.0242215, "lng": -98.19556605, "municipio": "Puebla", "tipo": "salud"}, {"nombre": "BALBUE DENT", "lat": 20.05138214, "lng": -97.79813819, "municipio": "Amixtlán", "tipo": "salud"}, {"nombre": "BANCO DE SANGRE DE PUELA", "lat": 19.04074628, "lng": -98.2065873, "municipio": "Puebla", "tipo": "salud"}, {"nombre": "BAÑOS DE TEMAXCAL ROMERO", "lat": 18.90966269, "lng": -98.4663106, "municipio": "Atlixco", "tipo": "salud"}, {"nombre": "BARIATRAS", "lat": 19.06475399, "lng": -98.18089823, "municipio": "Puebla", "tipo": "salud"}, {"nombre": "BARIATRIA CLINICA", "lat": 18.88340062, "lng": -97.72619516, "municipio": "Tecamachalco", "tipo": "salud"}, {"nombre": "BARIATRIA Y DERMOESTETICA BARIDEM", "lat": 19.02569369, "lng": -98.20221444, "municipio": "Puebla", "tipo": "salud"}, {"nombre": "BAROCK FAMILY DENTAL", "lat": 18.88760942, "lng": -98.44889317, "municipio": "Atlixco", "tipo": "salud"}, {"nombre": "BASE AMBULANCIA TEPEACA", "lat": 18.95376927, "lng": -97.89607658, "municipio": "Tepeaca", "tipo": "salud"}, {"nombre": "BASE DE AMBULANCIA ACATLAN", "lat": 18.19336445, "lng": -98.05306613, "municipio": "Acatlán", "tipo": "salud"}, {"nombre": "BASE DE AMBULANCIA ATLIXCO", "lat": 18.91021629, "lng": -98.43263123, "municipio": "Atlixco", "tipo": "salud"}, {"nombre": "BASE DE AMBULANCIA CD DE PUEBLA", "lat": 19.0478983, "lng": -98.1877851, "municipio": "Puebla", "tipo": "salud"}, {"nombre": "BASE DE AMBULANCIA CHIGNAHUAPAN", "lat": 19.82892295, "lng": -98.03113464, "municipio": "Chignahuapan", "tipo": "salud"}, {"nombre": "BASE DE AMBULANCIA CHOLULA", "lat": 19.06279162, "lng": -98.31222608, "municipio": "San Pedro Cholula", "tipo": "salud"}, {"nombre": "BASE DE AMBULANCIA HUEJOTZINGO", "lat": 19.16904005, "lng": -98.40704391, "municipio": "Huejotzingo", "tipo": "salud"}, {"nombre": "BASE DE AMBULANCIA IZUCAR DE MATAMOROS", "lat": 18.60127123, "lng": -98.47170505, "municipio": "Izúcar de Matamoros", "tipo": "salud"}, {"nombre": "BASE DE AMBULANCIA SAN MARTIN TEXMELUCAN", "lat": 19.28212544, "lng": -98.4377216, "municipio": "San Martín Texmelucan", "tipo": "salud"}, {"nombre": "BASE DE AMBULANCIA TECAMACHALCO", "lat": 18.88334468, "lng": -97.72539744, "municipio": "Tecamachalco", "tipo": "salud"}, {"nombre": "BASE DE AMBULANCIA TEZIUTLAN", "lat": 19.81050031, "lng": -97.36176431, "municipio": "Teziutlán", "tipo": "salud"}, {"nombre": "BASE DE AMBULANCIA VILLA RAFAEL LARA GRAJALES", "lat": 19.22362199, "lng": -97.81047699, "municipio": "Rafael Lara Grajales", "tipo": "salud"}, {"nombre": "BASE DE AMBULANCIA XICOTEPEC", "lat": 20.2783505, "lng": -97.96004508, "municipio": "Xicotepec", "tipo": "salud"}, {"nombre": "BASE DE AMBULANCIA ZACAPOAXTLA", "lat": 19.86142676, "lng": -97.58681383, "municipio": "Zacapoaxtla", "tipo": "salud"}, {"nombre": "BASE DE AMBULANCIA ZACATLAN", "lat": 19.92776671, "lng": -97.97385277, "municipio": "Zacatlán", "tipo": "salud"}, {"nombre": "BASE DE AMBULANCIAS CIUDAD SERDAN", "lat": 18.98629164, "lng": -97.44742992, "municipio": "Chalchicomula de Sesma", "tipo": "salud"}, {"nombre": "BASE DE AMBULANCIAS HUAUCHINANGO", "lat": 20.17418545, "lng": -98.06297557, "municipio": "Huauchinango", "tipo": "salud"}, {"nombre": "BASIDENT CLINICA DENTAL", "lat": 18.47030678, "lng": -97.39633272, "municipio": "Tehuacán", "tipo": "salud"}, {"nombre": "BASTDENT", "lat": 19.03091808, "lng": -98.20811275, "municipio": "Puebla", "tipo": "salud"}, {"nombre": "BASTEETH ODONTOLOGIA ESPECIALIZADA", "lat": 19.02126341, "lng": -98.26604853, "municipio": "San Andrés Cholula", "tipo": "salud"}, {"nombre": "BE A DOCTOR", "lat": 19.02126341, "lng": -98.26604853, "municipio": "San Andrés Cholula", "tipo": "salud"}, {"nombre": "BENE-FISIO REHABILITACION", "lat": 19.03942093, "lng": -98.20361328, "municipio": "Puebla", "tipo": "salud"}, {"nombre": "BENESSERE DENTAL", "lat": 19.05593027, "lng": -98.21534503, "municipio": "Puebla", "tipo": "salud"}, {"nombre": "BENESSERE LARA", "lat": 19.04048078, "lng": -98.19090268, "municipio": "Puebla", "tipo": "salud"}, {"nombre": "BENESSTA CENTRO DE CONTROL DE PESO Y CUIDADO DE LA PIEL", "lat": 18.88260298, "lng": -97.72906807, "municipio": "Tecamachalco", "tipo": "salud"}, {"nombre": "BENTURI LABORATORIO CLINICO", "lat": 18.47289006, "lng": -97.39490531, "municipio": "Tehuacán", "tipo": "salud"}, {"nombre": "BERMUDEZ DENTAL", "lat": 19.16870708, "lng": -98.30555351, "municipio": "San Miguel Xoxtla", "tipo": "salud"}, {"nombre": "BEST", "lat": 19.81615189, "lng": -97.36158739, "municipio": "Teziutlán", "tipo": "salud"}, {"nombre": "BIAANI MENDOZA PODOLOGA", "lat": 18.2279825, "lng": -98.03820514, "municipio": "Acatlán", "tipo": "salud"}, {"nombre": "BIBLIOTECA CEFAP", "lat": 19.02458325, "lng": -98.21915196, "municipio": "Puebla", "tipo": "salud"}, {"nombre": "BICODENT", "lat": 18.46774165, "lng": -97.39387499, "municipio": "Tehuacán", "tipo": "salud"}, {"nombre": "BIENESTAR CON PSICOLOGIA", "lat": 19.05413263, "lng": -98.25984867, "municipio": "Puebla", "tipo": "salud"}, {"nombre": "BIENESTAR INTEGRAL", "lat": 19.08725868, "lng": -98.22721131, "municipio": "Puebla", "tipo": "salud"}, {"nombre": "BIESADENT", "lat": 19.0480516, "lng": -98.20585726, "municipio": "Puebla", "tipo": "salud"}, {"nombre": "BILAB", "lat": 19.07901058, "lng": -98.24275582, "municipio": "Puebla", "tipo": "salud"}, {"nombre": "BILITYPRO", "lat": 19.04333594, "lng": -98.22747329, "municipio": "Puebla", "tipo": "salud"}, {"nombre": "BIO ANALISIS LABORATORIO CLINICO", "lat": 19.05175692, "lng": -98.2218681, "municipio": "Puebla", "tipo": "salud"}, {"nombre": "BIO FIT CENTRO DE FISIOTERAPIA", "lat": 18.45540937, "lng": -97.40980541, "municipio": "Tehuacán", "tipo": "salud"}, {"nombre": "BIO LAB", "lat": 19.08117222, "lng": -98.18127544, "municipio": "Puebla", "tipo": "salud"}, {"nombre": "BIO SITMA", "lat": 19.02846066, "lng": -98.21432761, "municipio": "Puebla", "tipo": "salud"}, {"nombre": "BIO VELAB DIAGNOSTICO", "lat": 18.96972315, "lng": -98.23900995, "municipio": "Puebla", "tipo": "salud"}, {"nombre": "BIO VELAB LABORATORIO CLINICO", "lat": 18.99175066, "lng": -98.22897613, "municipio": "Puebla", "tipo": "salud"}, {"nombre": "BIOARTHIRS TEHUACAN", "lat": 18.47423637, "lng": -97.39279529, "municipio": "Tehuacán", "tipo": "salud"}, {"nombre": "BIOAVANTE LABORATORIO CLINICO", "lat": 18.45579583, "lng": -97.39669688, "municipio": "Tehuacán", "tipo": "salud"}, {"nombre": "BIOCHANCES", "lat": 19.05679804, "lng": -98.22452348, "municipio": "Puebla", "tipo": "salud"}, {"nombre": "BIOCLINICOS LABORATORIO", "lat": 19.04243283, "lng": -98.04483693, "municipio": "Amozoc", "tipo": "salud"}, {"nombre": "BIODENT", "lat": 19.03010224, "lng": -98.20921266, "municipio": "Puebla", "tipo": "salud"}, {"nombre": "BIODENT", "lat": 18.89226631, "lng": -98.44343949, "municipio": "Atlixco", "tipo": "salud"}, {"nombre": "BIODENT CONSULTORIO DENTAL", "lat": 18.60483111, "lng": -98.46633704, "municipio": "Izúcar de Matamoros", "tipo": "salud"}, {"nombre": "BIODENTA CLINICA DENTAL", "lat": 19.02749557, "lng": -98.23327345, "municipio": "San Andrés Cholula", "tipo": "salud"}, {"nombre": "BIOIMAGEN", "lat": 18.91017139, "lng": -98.43759926, "municipio": "Atlixco", "tipo": "salud"}, {"nombre": "BIOMAGNETISMO ANGEL SANCHEZ", "lat": 19.06669304, "lng": -98.17579478, "municipio": "Puebla", "tipo": "salud"}, {"nombre": "BIOMAGNETISMO MEDICO QUIROPRACTICO", "lat": 18.89785645, "lng": -98.44177428, "municipio": "Atlixco", "tipo": "salud"}, {"nombre": "BIOMEDICA CENTRAL MEDICA ESPECIALIZADA Y DE URGENCIAS", "lat": 18.46918611, "lng": -97.40479636, "municipio": "Tehuacán", "tipo": "salud"}, {"nombre": "BIOMEDICAL CLINICA INTEGRAL", "lat": 19.01390785, "lng": -98.17987285, "municipio": "Puebla", "tipo": "salud"}, {"nombre": "BIOQUIMIC LAB ANALISIS CLINICOS", "lat": 19.03738144, "lng": -98.19438961, "municipio": "Puebla", "tipo": "salud"}, {"nombre": "BIOREIN MEDICINA INTEGRAL", "lat": 19.01149154, "lng": -98.21800955, "municipio": "Puebla", "tipo": "salud"}, {"nombre": "BIOSCAN", "lat": 18.9938353, "lng": -98.27595514, "municipio": "San Andrés Cholula", "tipo": "salud"}, {"nombre": "BIOTECSA", "lat": 19.16674266, "lng": -98.30529937, "municipio": "San Miguel Xoxtla", "tipo": "salud"}, {"nombre": "BL BIOICLINICOS", "lat": 19.10561787, "lng": -97.9528079, "municipio": "Acajete", "tipo": "salud"}, {"nombre": "BLK SUM OPTICA", "lat": 19.0878352, "lng": -98.27340119, "municipio": "Cuautlancingo", "tipo": "salud"}, {"nombre": "BLUE MOON", "lat": 19.05279541, "lng": -98.234078, "municipio": "Puebla", "tipo": "salud"}, {"nombre": "BOCA CLINICA DENTAL", "lat": 19.01102943, "lng": -98.24573783, "municipio": "Puebla", "tipo": "salud"}, {"nombre": "BODEGA DE LABORATORIOS CLINICOS GUBIA", "lat": 20.17121865, "lng": -98.06387094, "municipio": "Huauchinango", "tipo": "salud"}, {"nombre": "BODEGA DEL IMSS", "lat": 19.06795427, "lng": -98.2478085, "municipio": "Puebla", "tipo": "salud"}, {"nombre": "BODEGA DEL INSTITUTO DE SEGUIDAD Y SERVICIOS SOCIALES DE LOS TRABAJADORES DEL ESTADO", "lat": 18.91920993, "lng": -98.43629162, "municipio": "Atlixco", "tipo": "salud"}, {"nombre": "BODEGA OPTICA JUAREZ", "lat": 19.81441141, "lng": -97.35952038, "municipio": "Teziutlán", "tipo": "salud"}, {"nombre": "BODENT ODONTOLOGIA", "lat": 19.03220635, "lng": -98.21410876, "municipio": "Puebla", "tipo": "salud"}, {"nombre": "BODY BALANCE HEALTCARE CENTER", "lat": 19.07651976, "lng": -98.26335034, "municipio": "San Pedro Cholula", "tipo": "salud"}, {"nombre": "BODY EXPERT", "lat": 19.09039089, "lng": -98.21456976, "municipio": "Puebla", "tipo": "salud"}, {"nombre": "BOJANINI", "lat": 19.02126341, "lng": -98.26604853, "municipio": "San Andrés Cholula", "tipo": "salud"}, {"nombre": "BOLD BLUE TECHNOLOGIES", "lat": 19.04264814, "lng": -98.20872457, "municipio": "Puebla", "tipo": "salud"}, {"nombre": "BONGIORNO BODY & FISIOTHERAPY", "lat": 19.06738896, "lng": -98.2156317, "municipio": "Puebla", "tipo": "salud"}, {"nombre": "BONI DENT", "lat": 19.04172041, "lng": -98.1945843, "municipio": "Puebla", "tipo": "salud"}, {"nombre": "BORDETA CONSULTORIO DENTAL", "lat": 19.93247409, "lng": -97.9622879, "municipio": "Zacatlán", "tipo": "salud"}, {"nombre": "BOSTON MEDICAL", "lat": 19.05349094, "lng": -98.22225428, "municipio": "Puebla", "tipo": "salud"}, {"nombre": "BOTICA LUNA SABINA", "lat": 19.06227074, "lng": -98.32307304, "municipio": "San Pedro Cholula", "tipo": "salud"}, {"nombre": "BRACKETS CENTRO DENTAL", "lat": 18.60228564, "lng": -98.46964687, "municipio": "Izúcar de Matamoros", "tipo": "salud"}, {"nombre": "BRILLA DENT", "lat": 19.30333767, "lng": -98.45654379, "municipio": "San Martín Texmelucan", "tipo": "salud"}, {"nombre": "BRILLANT SMILE CLINIC", "lat": 18.9399459, "lng": -97.90868769, "municipio": "Tepeaca", "tipo": "salud"}, {"nombre": "BROCES", "lat": 19.04701901, "lng": -98.21710903, "municipio": "Puebla", "tipo": "salud"}, {"nombre": "BUNOVA CLINICA DE ESPECIALIDADES", "lat": 18.88083597, "lng": -97.7242388, "municipio": "Tecamachalco", "tipo": "salud"}, {"nombre": "C OPTICO VP", "lat": 18.11662854, "lng": -98.07874075, "municipio": "San Pedro Yeloixtlahuaca", "tipo": "salud"}, {"nombre": "C Y C DENTAL", "lat": 19.02393781, "lng": -98.21473118, "municipio": "Puebla", "tipo": "salud"}, {"nombre": "CA PUEBLA CARPERMOR", "lat": 19.01823168, "lng": -98.198844, "municipio": "Puebla", "tipo": "salud"}, {"nombre": "CABINA DE MASAJE WALEN", "lat": 19.11307408, "lng": -97.94976514, "municipio": "Acajete", "tipo": "salud"}, {"nombre": "CABINA PODOLOGIA", "lat": 19.21076872, "lng": -98.38390971, "municipio": "Huejotzingo", "tipo": "salud"}, {"nombre": "CADHU FISIOTERAPIA", "lat": 18.98152359, "lng": -98.23283454, "municipio": "Puebla", "tipo": "salud"}, {"nombre": "CAISS", "lat": 19.20966505, "lng": -98.3779722, "municipio": "Huejotzingo", "tipo": "salud"}, {"nombre": "CAMA DE MASAJES", "lat": 18.98916384, "lng": -98.19961241, "municipio": "Puebla", "tipo": "salud"}, {"nombre": "CAMARA HIPERBARICA OHB", "lat": 19.06789481, "lng": -98.23221467, "municipio": "Puebla", "tipo": "salud"}, {"nombre": "CAMI", "lat": 19.02568832, "lng": -98.20256686, "municipio": "Puebla", "tipo": "salud"}, {"nombre": "CAMPO MELISEOS", "lat": 19.04314288, "lng": -98.22883944, "municipio": "Puebla", "tipo": "salud"}, {"nombre": "CANO DENTAL", "lat": 18.9664814, "lng": -97.90619342, "municipio": "Tepeaca", "tipo": "salud"}, {"nombre": "CANOTERAPIA", "lat": 19.04936751, "lng": -98.18704665, "municipio": "Puebla", "tipo": "salud"}, {"nombre": "CANSULTORIO MEDICO SIN NOMBRE", "lat": 19.11381488, "lng": -97.41741371, "municipio": "Tlachichuca", "tipo": "salud"}, {"nombre": "CAPILAR ROOM", "lat": 19.07251472, "lng": -98.27561865, "municipio": "San Pedro Cholula", "tipo": "salud"}, {"nombre": "CAPILESSA", "lat": 19.03904791, "lng": -98.24176655, "municipio": "Puebla", "tipo": "salud"}, {"nombre": "CARDEN", "lat": 19.17162368, "lng": -98.30705091, "municipio": "San Miguel Xoxtla", "tipo": "salud"}, {"nombre": "CARDI GIL", "lat": 19.02125909, "lng": -98.26605772, "municipio": "San Andrés Cholula", "tipo": "salud"}, {"nombre": "CARDIAC Y VASCULAR DIAGNOSTIC CENTER", "lat": 19.02126341, "lng": -98.26604853, "municipio": "San Andrés Cholula", "tipo": "salud"}, {"nombre": "CARDILOGIA CLINICA", "lat": 19.02213529, "lng": -98.23463108, "municipio": "Puebla", "tipo": "salud"}, {"nombre": "CARDIO GAB CARDIOLOGIA INTEGRAL", "lat": 19.02126341, "lng": -98.26604853, "municipio": "San Andrés Cholula", "tipo": "salud"}, {"nombre": "CARDIOLOGIA CLINICA", "lat": 19.02213529, "lng": -98.23463108, "municipio": "Puebla", "tipo": "salud"}, {"nombre": "CARDIOLOGIA INTERVENCIONISTA Y MEDICO INTERNISTA", "lat": 19.02213529, "lng": -98.23463108, "municipio": "Puebla", "tipo": "salud"}, {"nombre": "CARDIOLOGO", "lat": 19.03683945, "lng": -98.20309215, "municipio": "Puebla", "tipo": "salud"}, {"nombre": "CARDIOLOGO DR ARTURO HIGASHIDA", "lat": 19.02558373, "lng": -98.19843498, "municipio": "Puebla", "tipo": "salud"}, {"nombre": "CARDIOLOGO PEDIATRICO", "lat": 19.02213529, "lng": -98.23463108, "municipio": "Puebla", "tipo": "salud"}, {"nombre": "CARITAS FELICES", "lat": 19.18542436, "lng": -97.80705472, "municipio": "Nopalucan", "tipo": "salud"}, {"nombre": "CARITAS TEHUACAN", "lat": 18.46928473, "lng": -97.39518226, "municipio": "Tehuacán", "tipo": "salud"}, {"nombre": "CASA D SALUD EMILIANO", "lat": 19.0363818, "lng": -98.26146105, "municipio": "San Andrés Cholula", "tipo": "salud"}, {"nombre": "CASA DARSHAN CENTRO HOLISTICO", "lat": 19.01868809, "lng": -98.22614303, "municipio": "Puebla", "tipo": "salud"}, {"nombre": "CASA DE FE ESPIRITUALISMO TRINITARIO MARIANO", "lat": 19.04788407, "lng": -98.16532512, "municipio": "Puebla", "tipo": "salud"}, {"nombre": "CASA DE GESTION SIN NOMBRE", "lat": 19.80922914, "lng": -97.3561569, "municipio": "Teziutlán", "tipo": "salud"}, {"nombre": "CASA DE LA SALUD", "lat": 19.06512759, "lng": -98.23888465, "municipio": "Puebla", "tipo": "salud"}, {"nombre": "CASA DE ORACION ESPIRITUALISTA", "lat": 18.46927607, "lng": -97.39901268, "municipio": "Tehuacán", "tipo": "salud"}, {"nombre": "CASA DE RESTAURACION FE Y ACCION IZUCAR", "lat": 18.60683982, "lng": -98.4665248, "municipio": "Izúcar de Matamoros", "tipo": "salud"}, {"nombre": "CASA DE SALUD", "lat": 19.03874333, "lng": -98.33917962, "municipio": "San Andrés Cholula", "tipo": "salud"}, {"nombre": "CASA DE SALUD", "lat": 19.0319438, "lng": -98.25089189, "municipio": "San Andrés Cholula", "tipo": "salud"}, {"nombre": "CASA DE SALUD", "lat": 19.01945097, "lng": -98.30702897, "municipio": "San Andrés Cholula", "tipo": "salud"}, {"nombre": "CASA DE SALUD", "lat": 19.04339297, "lng": -98.12493937, "municipio": "Amozoc", "tipo": "salud"}, {"nombre": "CASA DE SALUD", "lat": 19.27932166, "lng": -98.42910287, "municipio": "San Martín Texmelucan", "tipo": "salud"}, {"nombre": "CASA DE SALUD", "lat": 18.44627093, "lng": -97.3616914, "municipio": "Tehuacán", "tipo": "salud"}, {"nombre": "CASA DE SALUD", "lat": 19.06404204, "lng": -98.29188566, "municipio": "San Andrés Cholula", "tipo": "salud"}, {"nombre": "CASA DE SALUD", "lat": 19.88199911, "lng": -97.46037586, "municipio": "Yaonáhuac", "tipo": "salud"}, {"nombre": "CASA DE SALUD", "lat": 20.03621156, "lng": -97.5447813, "municipio": "Cuetzalan del Progreso", "tipo": "salud"}, {"nombre": "CASA DE SALUD", "lat": 20.24039094, "lng": -98.10132309, "municipio": "Naupan", "tipo": "salud"}, {"nombre": "CASA DE SALUD", "lat": 19.37927255, "lng": -97.61467895, "municipio": "Oriental", "tipo": "salud"}, {"nombre": "CASA DE SALUD", "lat": 18.93495012, "lng": -98.47286312, "municipio": "Atlixco", "tipo": "salud"}, {"nombre": "CASA DE SALUD", "lat": 18.92161865, "lng": -98.45072887, "municipio": "Atlixco", "tipo": "salud"}, {"nombre": "CASA DE SALUD", "lat": 19.06388875, "lng": -98.42574983, "municipio": "Nealtican", "tipo": "salud"}, {"nombre": "CASA DE SALUD", "lat": 18.08269941, "lng": -98.12492057, "municipio": "Guadalupe", "tipo": "salud"}, {"nombre": "CASA DE SALUD", "lat": 20.12949604, "lng": -97.21224686, "municipio": "Acateno", "tipo": "salud"}, {"nombre": "CASA DE SALUD", "lat": 20.13290044, "lng": -97.20240152, "municipio": "Acateno", "tipo": "salud"}, {"nombre": "CASA DE SALUD", "lat": 18.68424601, "lng": -98.03859403, "municipio": "Huatlatlauca", "tipo": "salud"}, {"nombre": "CASA DE SALUD", "lat": 19.89699018, "lng": -97.44417957, "municipio": "Hueyapan", "tipo": "salud"}, {"nombre": "CASA DE SALUD", "lat": 19.89427616, "lng": -97.43678797, "municipio": "Hueyapan", "tipo": "salud"}, {"nombre": "CASA DE SALUD", "lat": 18.66789546, "lng": -98.45399217, "municipio": "Izúcar de Matamoros", "tipo": "salud"}, {"nombre": "CASA DE SALUD", "lat": 18.96423102, "lng": -98.23327495, "municipio": "Puebla", "tipo": "salud"}, {"nombre": "CASA DE SALUD", "lat": 19.0062112, "lng": -98.18898981, "municipio": "Puebla", "tipo": "salud"}, {"nombre": "CASA DE SALUD", "lat": 19.91782549, "lng": -97.58640674, "municipio": "Zacapoaxtla", "tipo": "salud"}, {"nombre": "CASA DE SALUD", "lat": 19.9154312, "lng": -97.58703427, "municipio": "Zacapoaxtla", "tipo": "salud"}, {"nombre": "CASA DE SALUD", "lat": 20.50919816, "lng": -97.6790311, "municipio": "Venustiano Carranza", "tipo": "salud"}, {"nombre": "CASA DE SALUD", "lat": 18.35533903, "lng": -97.04729402, "municipio": "Zoquitlán", "tipo": "salud"}, {"nombre": "CASA DE SALUD", "lat": 18.38044854, "lng": -97.04419553, "municipio": "Zoquitlán", "tipo": "salud"}, {"nombre": "CASA DE SALUD", "lat": 18.5541043, "lng": -97.48409964, "municipio": "Tehuacán", "tipo": "salud"}, {"nombre": "CASA DE SALUD", "lat": 18.48942035, "lng": -97.42759717, "municipio": "Tehuacán", "tipo": "salud"}, {"nombre": "CASA DE SALUD", "lat": 19.10148322, "lng": -98.21409849, "municipio": "Puebla", "tipo": "salud"}, {"nombre": "CASA DE SALUD", "lat": 19.06862725, "lng": -98.18781994, "municipio": "Puebla", "tipo": "salud"}, {"nombre": "CASA DE SALUD", "lat": 19.12211917, "lng": -98.22280487, "municipio": "Puebla", "tipo": "salud"}, {"nombre": "CASA DE SALUD", "lat": 19.11997274, "lng": -98.21671197, "municipio": "Puebla", "tipo": "salud"}, {"nombre": "CASA DE SALUD", "lat": 18.9762649, "lng": -98.21794901, "municipio": "Puebla", "tipo": "salud"}, {"nombre": "CASA DE SALUD", "lat": 19.05641704, "lng": -98.23368182, "municipio": "Puebla", "tipo": "salud"}, {"nombre": "CASA DE SALUD", "lat": 18.95782455, "lng": -98.1847484, "municipio": "Puebla", "tipo": "salud"}, {"nombre": "CASA DE SALUD", "lat": 19.00034079, "lng": -98.20992784, "municipio": "Puebla", "tipo": "salud"}, {"nombre": "CASA DE SALUD", "lat": 19.09239415, "lng": -98.19662211, "municipio": "Puebla", "tipo": "salud"}, {"nombre": "CASA DE SALUD", "lat": 19.07640832, "lng": -98.14271123, "municipio": "Puebla", "tipo": "salud"}, {"nombre": "CASA DE SALUD", "lat": 19.10528941, "lng": -98.19559243, "municipio": "Puebla", "tipo": "salud"}, {"nombre": "CASA DE SALUD", "lat": 19.1064319, "lng": -98.21917799, "municipio": "Puebla", "tipo": "salud"}, {"nombre": "CASA DE SALUD", "lat": 19.10596288, "lng": -98.19032337, "municipio": "Puebla", "tipo": "salud"}, {"nombre": "CASA DE SALUD", "lat": 19.09528352, "lng": -98.20214085, "municipio": "Puebla", "tipo": "salud"}, {"nombre": "CASA DE SALUD", "lat": 19.85183693, "lng": -97.45437645, "municipio": "Teteles de Avila Castillo", "tipo": "salud"}, {"nombre": "CASA DE SALUD", "lat": 18.9555979, "lng": -97.80882535, "municipio": "Los Reyes de Juárez", "tipo": "salud"}, {"nombre": "CASA DE SALUD", "lat": 19.13096298, "lng": -98.30782402, "municipio": "Coronango", "tipo": "salud"}, {"nombre": "CASA DE SALUD", "lat": 18.93129799, "lng": -97.82095687, "municipio": "Los Reyes de Juárez", "tipo": "salud"}, {"nombre": "CASA DE SALUD", "lat": 19.13411396, "lng": -97.73066786, "municipio": "Soltepec", "tipo": "salud"}, {"nombre": "CASA DE SALUD", "lat": 19.27997733, "lng": -98.45316206, "municipio": "San Martín Texmelucan", "tipo": "salud"}, {"nombre": "CASA DE SALUD", "lat": 19.03050566, "lng": -98.32023604, "municipio": "San Andrés Cholula", "tipo": "salud"}, {"nombre": "CASA DE SALUD", "lat": 18.98085668, "lng": -98.26834922, "municipio": "Puebla", "tipo": "salud"}, {"nombre": "CASA DE SALUD", "lat": 18.90143904, "lng": -98.25926782, "municipio": "Puebla", "tipo": "salud"}, {"nombre": "CASA DE SALUD", "lat": 18.97131195, "lng": -98.15975362, "municipio": "Puebla", "tipo": "salud"}, {"nombre": "CASA DE SALUD 2 DE MARZO", "lat": 19.0859382, "lng": -98.12275441, "municipio": "Puebla", "tipo": "salud"}, {"nombre": "CASA DE SALUD ANALCO TLATLAUQUITEPEC", "lat": 19.84972798, "lng": -97.49121579, "municipio": "Tlatlauquitepec", "tipo": "salud"}, {"nombre": "CASA DE SALUD ATALPA", "lat": 19.85223161, "lng": -97.50318811, "municipio": "Tlatlauquitepec", "tipo": "salud"}, {"nombre": "CASA DE SALUD ATEMEYA", "lat": 19.88455036, "lng": -97.47113269, "municipio": "Yaonáhuac", "tipo": "salud"}, {"nombre": "CASA DE SALUD AYOCO", "lat": 19.88961339, "lng": -97.58736505, "municipio": "Zacapoaxtla", "tipo": "salud"}, {"nombre": "CASA DE SALUD BARRIO ALTO", "lat": 19.8778834, "lng": -97.44461189, "municipio": "Hueyapan", "tipo": "salud"}, {"nombre": "CASA DE SALUD BARRIO DE FRANCIA", "lat": 19.8162138, "lng": -97.36850759, "municipio": "Teziutlán", "tipo": "salud"}, {"nombre": "CASA DE SALUD BARRIO DOS AHUATEPEC XITLAMA MUNICIPIO DE ZOQUITLAN", "lat": 18.31125009, "lng": -97.02312614, "municipio": "Zoquitlán", "tipo": "salud"}, {"nombre": "CASA DE SALUD BARRIO OCHO XITLAMA", "lat": 18.28990186, "lng": -97.00907257, "municipio": "Zoquitlán", "tipo": "salud"}, {"nombre": "CASA DE SALUD BARRIO PALA", "lat": 18.35630471, "lng": -97.0358806, "municipio": "Zoquitlán", "tipo": "salud"}, {"nombre": "CASA DE SALUD CHIPOTLA", "lat": 20.26615233, "lng": -98.15270265, "municipio": "Pahuatlán", "tipo": "salud"}, {"nombre": "CASA DE SALUD COLONIA MORELOS", "lat": 19.93967857, "lng": -97.28063367, "municipio": "Hueytamalco", "tipo": "salud"}, {"nombre": "CASA DE SALUD COLONIA SAN MIGUEL TILAPA", "lat": 18.60104802, "lng": -98.55122808, "municipio": "Tilapa", "tipo": "salud"}, {"nombre": "CASA DE SALUD COLONIA SANTA CRUZ", "lat": 18.70853796, "lng": -97.44832452, "municipio": "Cañada Morelos", "tipo": "salud"}, {"nombre": "CASA DE SALUD COLONIA XALTENO", "lat": 19.93538169, "lng": -97.29464663, "municipio": "Hueytamalco", "tipo": "salud"}, {"nombre": "CASA DE SALUD CONCEPCION GUADALUPE", "lat": 19.02557987, "lng": -98.22924884, "municipio": "San Andrés Cholula", "tipo": "salud"}, {"nombre": "CASA DE SALUD COYOTEPEC", "lat": 19.95141434, "lng": -97.97137268, "municipio": "Zacatlán", "tipo": "salud"}, {"nombre": "CASA DE SALUD DE AHUATENO", "lat": 19.84569589, "lng": -97.45828707, "municipio": "Atempan", "tipo": "salud"}, {"nombre": "CASA DE SALUD DE BARRIO ALTO", "lat": 19.7847447, "lng": -97.34758196, "municipio": "Xiutetelco", "tipo": "salud"}, {"nombre": "CASA DE SALUD DE CANDELARIA PURIFICACION", "lat": 18.93417548, "lng": -97.88261658, "municipio": "Tepeaca", "tipo": "salud"}, {"nombre": "CASA DE SALUD DE CHALCHICO", "lat": 18.32211012, "lng": -97.02641934, "municipio": "Zoquitlán", "tipo": "salud"}, {"nombre": "CASA DE SALUD DE COLOS AHUCATLAN", "lat": 19.8837176, "lng": -97.55867527, "municipio": "Zacapoaxtla", "tipo": "salud"}, {"nombre": "CASA DE SALUD DE COLOSTITAN", "lat": 19.88091308, "lng": -97.4362952, "municipio": "Hueyapan", "tipo": "salud"}, {"nombre": "CASA DE SALUD DE CRUZ BLANCA", "lat": 19.79818762, "lng": -97.35765278, "municipio": "Teziutlán", "tipo": "salud"}, {"nombre": "CASA DE SALUD DE GUADALUPE ANALCO", "lat": 19.0004108, "lng": -97.63629757, "municipio": "General Felipe Ángeles", "tipo": "salud"}, {"nombre": "CASA DE SALUD DE IMSS DE TAMUANCO", "lat": 19.81225804, "lng": -97.80717461, "municipio": "Tetela de Ocampo", "tipo": "salud"}, {"nombre": "CASA DE SALUD DE LA COLONIA FRANCISCO I. MADERO", "lat": 18.58966553, "lng": -97.41253921, "municipio": "Chapulco", "tipo": "salud"}, {"nombre": "CASA DE SALUD DE LA COLONIA INDEPENDENCIA", "lat": 18.72551316, "lng": -98.4561318, "municipio": "Tepeojuma", "tipo": "salud"}, {"nombre": "CASA DE SALUD DE LA COLONIA MORELOS CHIETLA", "lat": 18.51368236, "lng": -98.57284102, "municipio": "Chietla", "tipo": "salud"}, {"nombre": "CASA DE SALUD DE LA VILLITA TECAMACHALCO", "lat": 18.87052491, "lng": -97.72361453, "municipio": "Tecamachalco", "tipo": "salud"}, {"nombre": "CASA DE SALUD DE LOMAS VERDES", "lat": 19.8147156, "lng": -97.37959187, "municipio": "Teziutlán", "tipo": "salud"}, {"nombre": "CASA DE SALUD DE MAZAPILTEPEC DE JUAREZ", "lat": 19.12320653, "lng": -97.69748626, "municipio": "Mazapiltepec de Juárez", "tipo": "salud"}, {"nombre": "CASA DE SALUD DE SAN AGUSTIN", "lat": 19.28872522, "lng": -97.35001085, "municipio": "Guadalupe Victoria", "tipo": "salud"}, {"nombre": "CASA DE SALUD DE SAN ANTONIO CACALOTEPEC", "lat": 19.00989679, "lng": -98.29598948, "municipio": "San Andrés Cholula", "tipo": "salud"}, {"nombre": "CASA DE SALUD DE SAN ANTONIO COATEPEC", "lat": 18.72988597, "lng": -98.16323473, "municipio": "Huehuetlán el Grande", "tipo": "salud"}, {"nombre": "CASA DE SALUD DE SAN MATEO PARRA", "lat": 18.98970996, "lng": -97.86324679, "municipio": "Tepeaca", "tipo": "salud"}, {"nombre": "CASA DE SALUD DE SAN MIGUEL TANGUIZOLCO", "lat": 19.15939701, "lng": -98.44682363, "municipio": "Huejotzingo", "tipo": "salud"}, {"nombre": "CASA DE SALUD DE SAN NICOLAS TOLENTINO", "lat": 18.67838424, "lng": -98.05643745, "municipio": "Huatlatlauca", "tipo": "salud"}, {"nombre": "CASA DE SALUD DE SAN PABLO ACTIPAN", "lat": 18.9393275, "lng": -97.90056365, "municipio": "Tepeaca", "tipo": "salud"}, {"nombre": "CASA DE SALUD DE SAN PABLO ACTIPAN", "lat": 18.93621773, "lng": -97.90375116, "municipio": "Tepeaca", "tipo": "salud"}, {"nombre": "CASA DE SALUD DE SAN VICENTE FERRER", "lat": 18.49758791, "lng": -97.41335113, "municipio": "Tehuacán", "tipo": "salud"}, {"nombre": "CASA DE SALUD DE SANTA CRUZ TEHUIXPANGO", "lat": 18.94036057, "lng": -98.40376714, "municipio": "Atlixco", "tipo": "salud"}, {"nombre": "CASA DE SALUD DE TZOCUILAC", "lat": 18.89739159, "lng": -97.99237741, "municipio": "Tecali de Herrera", "tipo": "salud"}, {"nombre": "CASA DE SALUD DEL BARRIO DE SAN GERONIMO", "lat": 18.987857, "lng": -97.77877135, "municipio": "Acatzingo", "tipo": "salud"}, {"nombre": "CASA DE SALUD DOMINGO ARENAS", "lat": 19.33176705, "lng": -98.57453417, "municipio": "Tlahuapan", "tipo": "salud"}, {"nombre": "CASA DE SALUD EL CARMEN", "lat": 19.82713399, "lng": -97.45801003, "municipio": "Atempan", "tipo": "salud"}, {"nombre": "CASA DE SALUD FELIPE CARRILLO PUERTO", "lat": 19.27406814, "lng": -98.42976552, "municipio": "San Martín Texmelucan", "tipo": "salud"}, {"nombre": "CASA DE SALUD FLOR DEL BOSQUE II", "lat": 19.03539154, "lng": -98.12671113, "municipio": "Puebla", "tipo": "salud"}, {"nombre": "CASA DE SALUD FRESNILLO", "lat": 19.81327868, "lng": -97.37390482, "municipio": "Teziutlán", "tipo": "salud"}, {"nombre": "CASA DE SALUD GUADALUPE EL CONDE", "lat": 19.09592766, "lng": -98.18242545, "municipio": "Puebla", "tipo": "salud"}, {"nombre": "CASA DE SALUD HIJADERO", "lat": 18.36358634, "lng": -97.05289322, "municipio": "Zoquitlán", "tipo": "salud"}, {"nombre": "CASA DE SALUD JURISDICCION 6 LOMAS FLOR DEL BOSQUE", "lat": 19.03392344, "lng": -98.12638914, "municipio": "Puebla", "tipo": "salud"}, {"nombre": "CASA DE SALUD KOLOSICAN", "lat": 19.87963738, "lng": -97.55447163, "municipio": "Zacapoaxtla", "tipo": "salud"}, {"nombre": "CASA DE SALUD LA GLORIA", "lat": 18.9957966, "lng": -97.45791784, "municipio": "Chalchicomula de Sesma", "tipo": "salud"}, {"nombre": "CASA DE SALUD LAREDO TEXAS", "lat": 18.86157525, "lng": -97.9245905, "municipio": "Tecali de Herrera", "tipo": "salud"}, {"nombre": "CASA DE SALUD LAZARO CARDENAS SUR", "lat": 18.42004583, "lng": -97.36171606, "municipio": "Tehuacán", "tipo": "salud"}, {"nombre": "CASA DE SALUD LOMAS DE ALCHICHICA", "lat": 18.62307621, "lng": -98.47053754, "municipio": "Izúcar de Matamoros", "tipo": "salud"}, {"nombre": "CASA DE SALUD LOS ANGELES BARRANCA HONDA", "lat": 19.11856269, "lng": -98.219148, "municipio": "Puebla", "tipo": "salud"}, {"nombre": "CASA DE SALUD MONTE CHIQUITO", "lat": 18.49579817, "lng": -97.44015435, "municipio": "Santiago Miahuatlán", "tipo": "salud"}, {"nombre": "CASA DE SALUD NEXAPA AHILA", "lat": 20.18964368, "lng": -97.97264284, "municipio": "Huauchinango", "tipo": "salud"}, {"nombre": "CASA DE SALUD NIÑOS HEROES", "lat": 19.94736467, "lng": -97.97069817, "municipio": "Zacatlán", "tipo": "salud"}, {"nombre": "CASA DE SALUD NUEVO LEON", "lat": 19.08834861, "lng": -98.29092099, "municipio": "Cuautlancingo", "tipo": "salud"}, {"nombre": "CASA DE SALUD OJTIMAXAL", "lat": 19.85578283, "lng": -97.56705175, "municipio": "Zacapoaxtla", "tipo": "salud"}, {"nombre": "CASA DE SALUD ROSALES LAGUNILLA", "lat": 19.01849728, "lng": -98.14969784, "municipio": "Puebla", "tipo": "salud"}, {"nombre": "CASA DE SALUD SAN AGUSTIN", "lat": 18.12789248, "lng": -98.0815847, "municipio": "San Pablo Anicano", "tipo": "salud"}, {"nombre": "CASA DE SALUD SAN BERNADINO TLAXCALANCINGO", "lat": 19.02703706, "lng": -98.2737, "municipio": "San Andrés Cholula", "tipo": "salud"}, {"nombre": "CASA DE SALUD SAN COSME TEXINTLA", "lat": 19.08982632, "lng": -98.31558876, "municipio": "San Pedro Cholula", "tipo": "salud"}, {"nombre": "CASA DE SALUD SAN DIEGO CHALMA", "lat": 18.44283795, "lng": -97.36888525, "municipio": "Tehuacán", "tipo": "salud"}, {"nombre": "CASA DE SALUD SAN FRANCISCO", "lat": 18.08960791, "lng": -98.12689617, "municipio": "Guadalupe", "tipo": "salud"}, {"nombre": "CASA DE SALUD SAN ISIDRO VISTA HERMOSA", "lat": 18.50238673, "lng": -97.4001032, "municipio": "Santiago Miahuatlán", "tipo": "salud"}, {"nombre": "CASA DE SALUD SAN JOSE BUENAVISTA", "lat": 18.66087651, "lng": -97.57847227, "municipio": "Tlacotepec de Benito Juárez", "tipo": "salud"}, {"nombre": "CASA DE SALUD SAN JOSE VALSEQUILLO", "lat": 18.68255518, "lng": -97.63710928, "municipio": "Tlacotepec de Benito Juárez", "tipo": "salud"}, {"nombre": "CASA DE SALUD SAN MATIAS ATZALA", "lat": 19.25290428, "lng": -98.4815471, "municipio": "San Felipe Teotlalcingo", "tipo": "salud"}, {"nombre": "CASA DE SALUD SAN PEDRO XOLOCO", "lat": 19.79070204, "lng": -97.3627291, "municipio": "Teziutlán", "tipo": "salud"}, {"nombre": "CASA DE SALUD SANTA ANA TAMAZOLA", "lat": 18.32156039, "lng": -98.8415274, "municipio": "Jolalpan", "tipo": "salud"}, {"nombre": "CASA DE SALUD SANTA MARIA TATETLA", "lat": 18.6608516, "lng": -98.46264499, "municipio": "Izúcar de Matamoros", "tipo": "salud"}, {"nombre": "CASA DE SALUD SECCION 5TA SANTO NOMBRE", "lat": 18.67217953, "lng": -97.66481378, "municipio": "Tlacotepec de Benito Juárez", "tipo": "salud"}, {"nombre": "CASA DE SALUD SIN NOMBRE", "lat": 19.85922282, "lng": -97.49735826, "municipio": "Tlatlauquitepec", "tipo": "salud"}, {"nombre": "CASA DE SALUD SOTEROS ROBERTO ESPERON", "lat": 20.13513252, "lng": -97.21853994, "municipio": "Acateno", "tipo": "salud"}, {"nombre": "CASA DE SALUD TECOBETZAL", "lat": 18.30004333, "lng": -97.0277413, "municipio": "Zoquitlán", "tipo": "salud"}, {"nombre": "CASA DE SALUD TEPEPA ROMEROTLA", "lat": 18.3350482, "lng": -97.00802396, "municipio": "Zoquitlán", "tipo": "salud"}, {"nombre": "CASA DE SALUD TLAMANIC 10 OXPANGO", "lat": 18.33177719, "lng": -97.01099085, "municipio": "Zoquitlán", "tipo": "salud"}, {"nombre": "CASA DE SALUD TOZANCO", "lat": 19.80730363, "lng": -97.51638351, "municipio": "Tlatlauquitepec", "tipo": "salud"}, {"nombre": "CASA DE SALUD VALLE SUR", "lat": 18.8920398, "lng": -98.44555087, "municipio": "Atlixco", "tipo": "salud"}, {"nombre": "CASA DE SALUD VIVEROS DEL VALLE", "lat": 19.07102377, "lng": -98.14848506, "municipio": "Puebla", "tipo": "salud"}, {"nombre": "CASA DE SALUD XICOTENCATL", "lat": 19.8169735, "lng": -97.60791162, "municipio": "Zacapoaxtla", "tipo": "salud"}, {"nombre": "CASA DE SALUD XOLOATENO", "lat": 19.82892214, "lng": -97.36866744, "municipio": "Teziutlán", "tipo": "salud"}, {"nombre": "CASA DE SALUD ZOCUILA", "lat": 19.85458835, "lng": -97.48994669, "municipio": "Tlatlauquitepec", "tipo": "salud"}, {"nombre": "CASA DE SALUD ZOQUITLANTZACUALCO", "lat": 18.32784093, "lng": -97.03102242, "municipio": "Zoquitlán", "tipo": "salud"}, {"nombre": "CASA HABITACION CON SERVICIO OCULISTA", "lat": 18.67670761, "lng": -98.44301003, "municipio": "Izúcar de Matamoros", "tipo": "salud"}, {"nombre": "CASA HOLISTICA", "lat": 19.05950992, "lng": -98.31556708, "municipio": "San Pedro Cholula", "tipo": "salud"}, {"nombre": "CASA MORADA MONSERRAT", "lat": 19.04195156, "lng": -98.21286958, "municipio": "Puebla", "tipo": "salud"}, {"nombre": "CASA TSOJI EXPANDIENDO CONCIENCIA", "lat": 19.03745926, "lng": -98.23560103, "municipio": "Puebla", "tipo": "salud"}, {"nombre": "CBSFEMME", "lat": 19.28801241, "lng": -98.43484964, "municipio": "San Martín Texmelucan", "tipo": "salud"}, {"nombre": "CCIRUGIA GENERALONSULTORIO", "lat": 19.03078108, "lng": -98.22899097, "municipio": "Puebla", "tipo": "salud"}, {"nombre": "CECSSA CENTRO DE SALUD CON SERVICIOS AMPLIADOS SAN FELIPE HUEYOTLIPAN", "lat": 19.07438379, "lng": -98.2064952, "municipio": "Puebla", "tipo": "salud"}, {"nombre": "CEDI TULCINGO", "lat": 18.04747827, "lng": -98.44126427, "municipio": "Tulcingo", "tipo": "salud"}, {"nombre": "CEDIC LABORATORIOS", "lat": 19.07948694, "lng": -98.18366755, "municipio": "Puebla", "tipo": "salud"}, {"nombre": "CEDICSA", "lat": 18.58173031, "lng": -97.92739681, "municipio": "Tepexi de Rodríguez", "tipo": "salud"}, {"nombre": "CEDIET CENTRO DE INTELIGENCIA EMOCIONAL TEHUACAN", "lat": 18.46538661, "lng": -97.38057098, "municipio": "Tehuacán", "tipo": "salud"}, {"nombre": "CEDINAR", "lat": 18.33570474, "lng": -97.24717546, "municipio": "Zinacatepec", "tipo": "salud"}, {"nombre": "CEDINAR LABORATORIO", "lat": 18.28935664, "lng": -97.28705757, "municipio": "San José Miahuatlán", "tipo": "salud"}, {"nombre": "CEDINAR LABORATORIOS ANALISIS CLINICS Y MICROBIOLOGICOS", "lat": 18.36737576, "lng": -97.29957083, "municipio": "Altepexi", "tipo": "salud"}, {"nombre": "CEDITSA LABORATORIOS", "lat": 18.37793231, "lng": -97.25974175, "municipio": "Ajalpan", "tipo": "salud"}, {"nombre": "CEDITSA LABORATORIOS", "lat": 18.68174274, "lng": -97.65285032, "municipio": "Tlacotepec de Benito Juárez", "tipo": "salud"}, {"nombre": "CEDITSA LABORATORIOS", "lat": 18.47135, "lng": -97.39319958, "municipio": "Tehuacán", "tipo": "salud"}, {"nombre": "CEDITSA LABORATORIOS", "lat": 18.47129439, "lng": -97.39350039, "municipio": "Tehuacán", "tipo": "salud"}, {"nombre": "CEEAD", "lat": 19.28810955, "lng": -98.46597058, "municipio": "San Martín Texmelucan", "tipo": "salud"}, {"nombre": "CEEAD CENTRO ANALITICO", "lat": 19.28407012, "lng": -98.43740964, "municipio": "San Martín Texmelucan", "tipo": "salud"}, {"nombre": "CEEC", "lat": 20.17615763, "lng": -98.05024093, "municipio": "Huauchinango", "tipo": "salud"}, {"nombre": "CEFID CENTRO DE FISIOTERAPIA INTEGRAL DEPORTIVA", "lat": 19.93212268, "lng": -97.96646108, "municipio": "Zacatlán", "tipo": "salud"}, {"nombre": "CEIGA DENTAL", "lat": 18.98987207, "lng": -98.21515994, "municipio": "Puebla", "tipo": "salud"}, {"nombre": "CELL ANALISIS CLINICOS", "lat": 19.10024742, "lng": -98.24350753, "municipio": "Cuautlancingo", "tipo": "salud"}, {"nombre": "CELULI CENTER", "lat": 19.04375563, "lng": -98.24981142, "municipio": "Puebla", "tipo": "salud"}, {"nombre": "CEMIP", "lat": 18.96648015, "lng": -97.90603166, "municipio": "Tepeaca", "tipo": "salud"}, {"nombre": "CENTAURO CLINICA DENTAL", "lat": 19.05067888, "lng": -98.2168469, "municipio": "Puebla", "tipo": "salud"}, {"nombre": "CENTER ME", "lat": 19.01163262, "lng": -98.24564848, "municipio": "Puebla", "tipo": "salud"}, {"nombre": "CENTER OPTICO", "lat": 19.0744583, "lng": -98.26512322, "municipio": "San Pedro Cholula", "tipo": "salud"}, {"nombre": "CENTRAL BACH", "lat": 19.05403388, "lng": -98.23405075, "municipio": "Puebla", "tipo": "salud"}, {"nombre": "CENTRAL DE MATERNIDAD GONZALEZ DURAN", "lat": 19.05566391, "lng": -98.21642077, "municipio": "Puebla", "tipo": "salud"}, {"nombre": "CENTRAL DE MEDICOS SAN GABRIEL SA DE CV", "lat": 19.06516892, "lng": -98.30999403, "municipio": "San Pedro Cholula", "tipo": "salud"}, {"nombre": "CENTRAL DE VIDAS", "lat": 19.28813945, "lng": -98.44947432, "municipio": "San Martín Texmelucan", "tipo": "salud"}, {"nombre": "CENTRAL DENT", "lat": 19.06740193, "lng": -98.2114188, "municipio": "Puebla", "tipo": "salud"}, {"nombre": "CENTRAL DENT CLINICA DENTAL", "lat": 19.28473356, "lng": -98.43797963, "municipio": "San Martín Texmelucan", "tipo": "salud"}, {"nombre": "CENTRAL FISIOTERAPIA", "lat": 19.07241354, "lng": -98.1928124, "municipio": "Puebla", "tipo": "salud"}, {"nombre": "CENTRAL GINECO OBSTETRICA", "lat": 19.0416795, "lng": -98.21164775, "municipio": "Puebla", "tipo": "salud"}, {"nombre": "CENTRAL GINECOLOGICA", "lat": 20.27606534, "lng": -97.9616388, "municipio": "Xicotepec", "tipo": "salud"}, {"nombre": "CENTRAL MATERNO QUIRURGICA", "lat": 19.28327302, "lng": -98.43028924, "municipio": "San Martín Texmelucan", "tipo": "salud"}, {"nombre": "CENTRAL MEDICA", "lat": 20.1750845, "lng": -98.0511461, "municipio": "Huauchinango", "tipo": "salud"}, {"nombre": "CENTRAL MEDICO QUIRURGICO PADRE JESUS", "lat": 19.11053255, "lng": -97.95136725, "municipio": "Acajete", "tipo": "salud"}, {"nombre": "CENTRO ALPHABIOTICO", "lat": 19.03597752, "lng": -98.31636052, "municipio": "San Andrés Cholula", "tipo": "salud"}, {"nombre": "CENTRO AUDITIVO TEPEACA", "lat": 18.96384686, "lng": -97.90378152, "municipio": "Tepeaca", "tipo": "salud"}, {"nombre": "CENTRO BIO TERAPEUTICA", "lat": 19.0200338, "lng": -98.19473975, "municipio": "Puebla", "tipo": "salud"}, {"nombre": "CENTRO BRC SOLUCIONES KETABOLICAS", "lat": 19.04529361, "lng": -98.22943308, "municipio": "Puebla", "tipo": "salud"}, {"nombre": "CENTRO CARDIOLOVASCULAR PEDIATRICO", "lat": 19.02213529, "lng": -98.23463108, "municipio": "Puebla", "tipo": "salud"}, {"nombre": "CENTRO CLINICO EN INNOVACION Y PSICOLOGIA", "lat": 19.02841138, "lng": -98.20126452, "municipio": "Puebla", "tipo": "salud"}, {"nombre": "CENTRO COLORRECTAL PARA NIÑOS", "lat": 19.02213529, "lng": -98.23463108, "municipio": "Puebla", "tipo": "salud"}, {"nombre": "CENTRO COSMETOLOGICO", "lat": 19.02336694, "lng": -98.19672609, "municipio": "Puebla", "tipo": "salud"}, {"nombre": "CENTRO DE ALERGOLOGIA PEDIATRIA Y MEDICINA INTERNA", "lat": 19.0582612, "lng": -98.12142293, "municipio": "Puebla", "tipo": "salud"}, {"nombre": "CENTRO DE ANALISIS CLINICOS DE LA MIXTECA", "lat": 18.04678515, "lng": -98.4433155, "municipio": "Tulcingo", "tipo": "salud"}, {"nombre": "CENTRO DE APITERAPIA", "lat": 18.47135346, "lng": -97.3926169, "municipio": "Tehuacán", "tipo": "salud"}, {"nombre": "CENTRO DE APOYO PSICOLOGICO INFANTIL", "lat": 18.9105815, "lng": -98.43410461, "municipio": "Atlixco", "tipo": "salud"}, {"nombre": "CENTRO DE ARTRITIS Y REUMATISMO NARVARTE PUEBLA", "lat": 19.02793361, "lng": -98.21786644, "municipio": "Puebla", "tipo": "salud"}, {"nombre": "CENTRO DE ASISTENCIA PSICOLOGICO Y EDUCATIVA", "lat": 19.0483446, "lng": -98.42675894, "municipio": "Nealtican", "tipo": "salud"}, {"nombre": "CENTRO DE ASMA Y ALERGIA", "lat": 19.04072663, "lng": -98.22176777, "municipio": "Puebla", "tipo": "salud"}, {"nombre": "CENTRO DE ASMA Y ENFERMEDADES RESPIRATORIAS DEL NIÑO", "lat": 19.03078108, "lng": -98.22899097, "municipio": "Puebla", "tipo": "salud"}, {"nombre": "CENTRO DE ATENCION AL DESARROLLO CENTRE", "lat": 19.05284073, "lng": -98.18991622, "municipio": "Puebla", "tipo": "salud"}, {"nombre": "CENTRO DE ATENCION AL PIE PODOLOGIA", "lat": 19.09527654, "lng": -98.21631118, "municipio": "Puebla", "tipo": "salud"}, {"nombre": "CENTRO DE ATENCION DE OIBRE EXPRECION Y APOYOS HUMANTARIOS CALIHX", "lat": 18.98991222, "lng": -98.21467631, "municipio": "Puebla", "tipo": "salud"}, {"nombre": "CENTRO DE ATENCION DENTAL", "lat": 19.03441532, "lng": -98.21034929, "municipio": "Puebla", "tipo": "salud"}, {"nombre": "CENTRO DE ATENCION INFANTIL Y PSICOLOGICO", "lat": 19.93093242, "lng": -97.96298847, "municipio": "Zacatlán", "tipo": "salud"}, {"nombre": "CENTRO DE ATENCION INTEGRAL PARA CEGUERA Y DEBILIDAD VISUAL DE ESTADO DE PUEBLA", "lat": 18.98860207, "lng": -98.17728498, "municipio": "Puebla", "tipo": "salud"}, {"nombre": "CENTRO DE ATENCION MEDICA INTEGRAL CAMI", "lat": 18.98531989, "lng": -98.22953705, "municipio": "Puebla", "tipo": "salud"}, {"nombre": "CENTRO DE ATENCION MEDICA NATURISTA", "lat": 19.07319364, "lng": -98.14254888, "municipio": "Puebla", "tipo": "salud"}, {"nombre": "CENTRO DE ATENCION MEDICA SIN NOMBRE", "lat": 19.02026623, "lng": -98.19559907, "municipio": "Puebla", "tipo": "salud"}, {"nombre": "CENTRO DE ATENCION PROFESIONAL", "lat": 18.42823857, "lng": -97.40823721, "municipio": "Tehuacán", "tipo": "salud"}, {"nombre": "CENTRO DE ATENCION PSICOLOGICA", "lat": 19.28764174, "lng": -98.44209125, "municipio": "San Martín Texmelucan", "tipo": "salud"}, {"nombre": "CENTRO DE ATENCION PSICOLOGICA APLICADA CAPSA", "lat": 18.4645068, "lng": -97.39408125, "municipio": "Tehuacán", "tipo": "salud"}, {"nombre": "CENTRO DE ATENCION PSICOLOGICA CAPSI", "lat": 19.12873865, "lng": -97.64359517, "municipio": "San Salvador el Seco", "tipo": "salud"}, {"nombre": "CENTRO DE ATENCION PSICOLOGICA CUAUTLANCINGO", "lat": 19.08954327, "lng": -98.26986968, "municipio": "Cuautlancingo", "tipo": "salud"}, {"nombre": "CENTRO DE ATENCION PSICOLOGICA KV", "lat": 19.32016534, "lng": -98.50010424, "municipio": "San Matías Tlalancaleca", "tipo": "salud"}, {"nombre": "CENTRO DE ATENCION PSICOLOGICA RENACER", "lat": 18.46404211, "lng": -97.3931024, "municipio": "Tehuacán", "tipo": "salud"}, {"nombre": "CENTRO DE ATENCION PSICOLOGICO", "lat": 18.96841355, "lng": -97.89992718, "municipio": "Tepeaca", "tipo": "salud"}, {"nombre": "CENTRO DE ATENCION Y ACOMPAÑAMIENTO PSICOLOGICO SIN NOMBRE", "lat": 19.30333648, "lng": -98.45215249, "municipio": "San Martín Texmelucan", "tipo": "salud"}, {"nombre": "CENTRO DE ATENCION Y DIAGNOSTICO CLINICO", "lat": 18.8831683, "lng": -97.72630716, "municipio": "Tecamachalco", "tipo": "salud"}, {"nombre": "CENTRO DE BELLEZA Y BIENESTAR HOLISTICA SPA", "lat": 19.07681062, "lng": -98.24664978, "municipio": "Puebla", "tipo": "salud"}, {"nombre": "CENTRO DE BELLEZA Y SALUD BELLASCULPT", "lat": 19.01042285, "lng": -98.24546358, "municipio": "Puebla", "tipo": "salud"}, {"nombre": "CENTRO DE BIENESTAR", "lat": 19.01430233, "lng": -98.21309847, "municipio": "Puebla", "tipo": "salud"}, {"nombre": "CENTRO DE BIENESTAR", "lat": 19.04788852, "lng": -98.09950836, "municipio": "Amozoc", "tipo": "salud"}, {"nombre": "CENTRO DE BIENESTAR Y SALUD", "lat": 19.02818988, "lng": -98.20369737, "municipio": "Puebla", "tipo": "salud"}, {"nombre": "CENTRO DE BIENESTAR Y SALUD", "lat": 19.04744859, "lng": -98.25709897, "municipio": "San Andrés Cholula", "tipo": "salud"}, {"nombre": "CENTRO DE CAPACITACION TERAPIA PSICOLOGICA Y PEDAGOGICA", "lat": 19.83906447, "lng": -98.03125675, "municipio": "Chignahuapan", "tipo": "salud"}, {"nombre": "CENTRO DE CARDIOLOGIA", "lat": 19.02213529, "lng": -98.23463108, "municipio": "Puebla", "tipo": "salud"}, {"nombre": "CENTRO DE CARDOLOGIA DE PUEBLA", "lat": 19.03503105, "lng": -98.18720145, "municipio": "Puebla", "tipo": "salud"}, {"nombre": "CENTRO DE CIRUGIA AMBULATORIA Y CORTA ESTANCIA DE TEZIUTLAN", "lat": 19.82876106, "lng": -97.35929673, "municipio": "Teziutlán", "tipo": "salud"}, {"nombre": "CENTRO DE CIRUGIA BUCAL Y MAXILOFACIAL", "lat": 19.0290503, "lng": -98.21748026, "municipio": "Puebla", "tipo": "salud"}, {"nombre": "CENTRO DE CONSULTA FAMILIAR", "lat": 19.04030704, "lng": -98.33565489, "municipio": "San Andrés Cholula", "tipo": "salud"}, {"nombre": "CENTRO DE CUDADO FISICO CIELO", "lat": 19.06511843, "lng": -98.18632859, "municipio": "Puebla", "tipo": "salud"}, {"nombre": "CENTRO DE CUIDADO BUCAL", "lat": 19.05390077, "lng": -98.16721663, "municipio": "Puebla", "tipo": "salud"}, {"nombre": "CENTRO DE CUIDADOS OFTALMOLOGICOS", "lat": 19.08352651, "lng": -98.22902837, "municipio": "Puebla", "tipo": "salud"}, {"nombre": "CENTRO DE DESARROLLO HUMANO CON ESPECIALIDAD EN ADICCIONES", "lat": 19.0406705, "lng": -98.28432085, "municipio": "San Andrés Cholula", "tipo": "salud"}, {"nombre": "CENTRO DE DESARROLLO INFALTIL OTA", "lat": 19.02093401, "lng": -98.19109854, "municipio": "Puebla", "tipo": "salud"}, {"nombre": "CENTRO DE DESARROLLO PSICOLOGICO", "lat": 19.28764174, "lng": -98.44209125, "municipio": "San Martín Texmelucan", "tipo": "salud"}, {"nombre": "CENTRO DE DIACNOSTICO TEXMELUCAN CEEAD", "lat": 19.33803019, "lng": -98.5837582, "municipio": "Tlahuapan", "tipo": "salud"}, {"nombre": "CENTRO DE DIAGNOSTICO", "lat": 19.82354039, "lng": -97.3594459, "municipio": "Teziutlán", "tipo": "salud"}, {"nombre": "CENTRO DE DIAGNOSTICO", "lat": 19.28547966, "lng": -98.43727285, "municipio": "San Martín Texmelucan", "tipo": "salud"}, {"nombre": "CENTRO DE DIAGNOSTICO CLINICA HUIXCOLOTLA LABORATORIO CLINICO", "lat": 18.91951685, "lng": -97.76987609, "municipio": "San Salvador Huixcolotla", "tipo": "salud"}, {"nombre": "CENTRO DE DIAGNOSTICO INTEGRAL DE TEHUACAN", "lat": 18.36921716, "lng": -97.29883227, "municipio": "Altepexi", "tipo": "salud"}, {"nombre": "CENTRO DE DIAGNOSTICO MEDIC SCANNER", "lat": 18.79329833, "lng": -97.66441664, "municipio": "Yehualtepec", "tipo": "salud"}, {"nombre": "CENTRO DE DIAGNOSTICO RADIOLOGIA", "lat": 19.03386676, "lng": -98.18962858, "municipio": "Puebla", "tipo": "salud"}, {"nombre": "CENTRO DE DIAGNOSTICO TEXMELUCAN", "lat": 19.2863574, "lng": -98.44008931, "municipio": "San Martín Texmelucan", "tipo": "salud"}, {"nombre": "CENTRO DE DIAGNOSTICO TEXMELUCAN CEEAD", "lat": 19.26909642, "lng": -98.51665934, "municipio": "San Salvador el Verde", "tipo": "salud"}, {"nombre": "CENTRO DE DIAGNOSTICO TXMELUCAN", "lat": 19.2532283, "lng": -98.40297228, "municipio": "San Martín Texmelucan", "tipo": "salud"}, {"nombre": "CENTRO DE DIAGNOSTICO Y TERAPIA CDTI", "lat": 18.46038223, "lng": -97.39657085, "municipio": "Tehuacán", "tipo": "salud"}, {"nombre": "CENTRO DE DIAGNOSTICOY CONTROL DE GLAUCOMA", "lat": 19.05317581, "lng": -98.22417193, "municipio": "Puebla", "tipo": "salud"}, {"nombre": "CENTRO DE ENFERMEDADES CRONICO DEGENERATIVAS Y AUTOINMUNES CELULAS MADRE", "lat": 18.96377448, "lng": -97.9004531, "municipio": "Tepeaca", "tipo": "salud"}, {"nombre": "CENTRO DE EQUINOTERAPIA", "lat": 18.9238727, "lng": -98.41425419, "municipio": "Atlixco", "tipo": "salud"}, {"nombre": "CENTRO DE EQUINOTERAPIA SANTA MARIA", "lat": 19.03062007, "lng": -98.31938647, "municipio": "San Andrés Cholula", "tipo": "salud"}, {"nombre": "CENTRO DE ESPECIALIDADES DENTALES", "lat": 19.01944623, "lng": -98.21111172, "municipio": "Puebla", "tipo": "salud"}, {"nombre": "CENTRO DE ESPECIALIDADES DENTALES CRISAL", "lat": 19.02037727, "lng": -98.2111777, "municipio": "Puebla", "tipo": "salud"}, {"nombre": "CENTRO DE ESPECIALIDADES DERMATOLOGICAS", "lat": 19.03904791, "lng": -98.24176655, "municipio": "Puebla", "tipo": "salud"}, {"nombre": "CENTRO DE ESPECIALIDADES ESTAMOTOLOGICAS", "lat": 19.28351813, "lng": -98.43900079, "municipio": "San Martín Texmelucan", "tipo": "salud"}, {"nombre": "CENTRO DE ESPECIALIDADES ESTOMATOLOGICAS", "lat": 20.26350082, "lng": -97.96178436, "municipio": "Xicotepec", "tipo": "salud"}, {"nombre": "CENTRO DE ESPECIALIDADES ESTOMATOLOGICAS", "lat": 20.26350082, "lng": -97.96178436, "municipio": "Xicotepec", "tipo": "salud"}, {"nombre": "CENTRO DE ESPECIALIDADES MEDICAS", "lat": 19.27885081, "lng": -98.43591936, "municipio": "San Martín Texmelucan", "tipo": "salud"}, {"nombre": "CENTRO DE ESPECIALIDADES MEDICAS ADN", "lat": 18.98528861, "lng": -97.7856978, "municipio": "Acatzingo", "tipo": "salud"}, {"nombre": "CENTRO DE ESPECIALIDADES OFTALMOLOGICAS DE PUEBLA ANGELES PUEBLA GBA OFTALMOLOGOS", "lat": 19.02213529, "lng": -98.23463108, "municipio": "Puebla", "tipo": "salud"}, {"nombre": "CENTRO DE ESPECIALIDADES OFTALMOLOGICAS PEREGRINA", "lat": 19.0640385, "lng": -98.21490514, "municipio": "Puebla", "tipo": "salud"}, {"nombre": "CENTRO DE ESPECIALIDADES PSICOTERAPEUTICO", "lat": 19.0212408, "lng": -98.19259053, "municipio": "Puebla", "tipo": "salud"}, {"nombre": "CENTRO DE ESTIMULACION Y ATENCION PSICOLOGIA TUTELAR ESPECIALIZADA", "lat": 19.03674356, "lng": -98.22083876, "municipio": "Puebla", "tipo": "salud"}, {"nombre": "CENTRO DE ESTUDIO Y APOYO FAMILIAR", "lat": 19.29018592, "lng": -98.42176048, "municipio": "San Martín Texmelucan", "tipo": "salud"}, {"nombre": "CENTRO DE ESTUDIOS Y ASISTENCIA INTEGRAL PSICOLOGICA AC", "lat": 18.57948991, "lng": -97.92776372, "municipio": "Tepexi de Rodríguez", "tipo": "salud"}, {"nombre": "CENTRO DE FISIOTERAPIA", "lat": 19.01753647, "lng": -98.27887581, "municipio": "San Andrés Cholula", "tipo": "salud"}, {"nombre": "CENTRO DE FISIOTERAPIA", "lat": 19.37831681, "lng": -97.62050792, "municipio": "Oriental", "tipo": "salud"}, {"nombre": "CENTRO DE FISIOTERAPIA", "lat": 20.382234, "lng": -97.88118337, "municipio": "Xicotepec", "tipo": "salud"}, {"nombre": "CENTRO DE FISIOTERAPIA FE Y ESPERANZA", "lat": 19.23942646, "lng": -98.42033779, "municipio": "San Martín Texmelucan", "tipo": "salud"}, {"nombre": "CENTRO DE FISIOTERAPIA KINEFI", "lat": 18.60798917, "lng": -98.46736679, "municipio": "Izúcar de Matamoros", "tipo": "salud"}, {"nombre": "CENTRO DE FISIOTERAPIA KINEKIDS", "lat": 19.06356993, "lng": -98.24515046, "municipio": "Puebla", "tipo": "salud"}, {"nombre": "CENTRO DE FISIOTERAPIA KINESIG", "lat": 18.29763502, "lng": -98.60050158, "municipio": "Chiautla", "tipo": "salud"}, {"nombre": "CENTRO DE FISIOTERAPIA MOVI SALUD", "lat": 19.11586575, "lng": -97.4183394, "municipio": "Tlachichuca", "tipo": "salud"}, {"nombre": "CENTRO DE FISIOTERAPIA NOVACARE", "lat": 19.05816368, "lng": -98.25022646, "municipio": "Puebla", "tipo": "salud"}, {"nombre": "CENTRO DE FISIOTERAPIA REHABILITACION Y ACUPUNTURA", "lat": 18.98099024, "lng": -97.78588771, "municipio": "Acatzingo", "tipo": "salud"}, {"nombre": "CENTRO DE FISIOTERAPIA REM", "lat": 19.28607498, "lng": -98.44239634, "municipio": "San Martín Texmelucan", "tipo": "salud"}, {"nombre": "CENTRO DE FISIOTERAPIA TACOPAN", "lat": 19.83297506, "lng": -97.42181815, "municipio": "Atempan", "tipo": "salud"}, {"nombre": "CENTRO DE FISIOTERAPIA THE MOVE MIND", "lat": 19.8118752, "lng": -97.37372181, "municipio": "Teziutlán", "tipo": "salud"}, {"nombre": "CENTRO DE FISIOTERAPIA Y EDUCACION ESPECIAL MONTESSORI", "lat": 18.46446974, "lng": -97.40410773, "municipio": "Tehuacán", "tipo": "salud"}, {"nombre": "CENTRO DE FISIOTERAPIA Y PODOLOGIA", "lat": 20.17813813, "lng": -98.06008726, "municipio": "Huauchinango", "tipo": "salud"}, {"nombre": "CENTRO DE FISIOTERAPIA Y PRODUCTOS DE ORTOPEDIA OLINIA", "lat": 20.17534109, "lng": -98.04563393, "municipio": "Huauchinango", "tipo": "salud"}, {"nombre": "CENTRO DE FISIOTERAPIA Y QUIROPRACTICA FISIONUT", "lat": 19.12137734, "lng": -98.30307779, "municipio": "Coronango", "tipo": "salud"}, {"nombre": "CENTRO DE FISIOTERAPIA Y REHABILITACION", "lat": 18.64598427, "lng": -98.07559067, "municipio": "Chigmecatitlán", "tipo": "salud"}, {"nombre": "CENTRO DE FISIOTERAPIA Y REHABILITACION FENIX", "lat": 19.28287004, "lng": -98.4289906, "municipio": "San Martín Texmelucan", "tipo": "salud"}, {"nombre": "CENTRO DE FISIOTERAPIA YREHABILITACION INTEGRAL FISIO ES LIFE", "lat": 19.06800842, "lng": -98.31639798, "municipio": "San Pedro Cholula", "tipo": "salud"}, {"nombre": "CENTRO DE FISIOTRAPIA MAF", "lat": 18.99160368, "lng": -98.32557047, "municipio": "Ocoyucan", "tipo": "salud"}, {"nombre": "CENTRO DE FORMACION TOTAL CEFOT", "lat": 18.462552, "lng": -97.39351251, "municipio": "Tehuacán", "tipo": "salud"}, {"nombre": "CENTRO DE HISOTERAPIA PLACENTARIA", "lat": 18.46313359, "lng": -97.39577781, "municipio": "Tehuacán", "tipo": "salud"}, {"nombre": "CENTRO DE IMAGENES MEDICAS RADIOLOGIA GENERAL Y PEDIATRICA", "lat": 19.05468038, "lng": -98.23167799, "municipio": "Puebla", "tipo": "salud"}, {"nombre": "CENTRO DE INTEGRACION INFANTIL MEJORES FAMILIAS", "lat": 18.47225131, "lng": -97.43355538, "municipio": "Tehuacán", "tipo": "salud"}, {"nombre": "CENTRO DE INTEGRACION JUVENIL PUEBLA", "lat": 19.01515723, "lng": -98.18350218, "municipio": "Puebla", "tipo": "salud"}, {"nombre": "CENTRO DE INTEGRACION Y PREVENCION A LAS ADICCIONES VIVIENDO SOBRIO", "lat": 19.94068939, "lng": -97.28488102, "municipio": "Hueytamalco", "tipo": "salud"}, {"nombre": "CENTRO DE INTEGRADOR DE SERVICIOS SAN SEBASTIAN TETELES", "lat": 19.02774874, "lng": -97.78703388, "municipio": "Acatzingo", "tipo": "salud"}, {"nombre": "CENTRO DE LA COLUMNA VERTEBRAL FORMULA OVANDO SANDERS", "lat": 19.04287157, "lng": -98.23537282, "municipio": "Puebla", "tipo": "salud"}, {"nombre": "CENTRO DE LUZ DACMA", "lat": 19.02829203, "lng": -98.20123265, "municipio": "Puebla", "tipo": "salud"}, {"nombre": "CENTRO DE MATERNIDAD", "lat": 19.05023905, "lng": -98.15563842, "municipio": "Puebla", "tipo": "salud"}, {"nombre": "CENTRO DE MEDICINA ALTERNATIVA", "lat": 18.45345198, "lng": -97.39382682, "municipio": "Tehuacán", "tipo": "salud"}, {"nombre": "CENTRO DE MEDICINA ESTETICA Y SPA", "lat": 19.03904791, "lng": -98.24176655, "municipio": "Puebla", "tipo": "salud"}, {"nombre": "CENTRO DE MEDICINA ESTETICA Y SPA", "lat": 19.28645584, "lng": -98.43766087, "municipio": "San Martín Texmelucan", "tipo": "salud"}, {"nombre": "CENTRO DE MEDICINA VASCULAR", "lat": 19.06140758, "lng": -98.2304352, "municipio": "Puebla", "tipo": "salud"}, {"nombre": "CENTRO DE NEUROCIENCIAS PEDIATRICO", "lat": 19.02213529, "lng": -98.23463108, "municipio": "Puebla", "tipo": "salud"}, {"nombre": "CENTRO DE NEURODESARROLLO Y REHABILITACION FISICA", "lat": 18.45758971, "lng": -97.41094366, "municipio": "Tehuacán", "tipo": "salud"}, {"nombre": "CENTRO DE NEURODIAGNOSTICO", "lat": 19.02213529, "lng": -98.23463108, "municipio": "Puebla", "tipo": "salud"}, {"nombre": "CENTRO DE NEUROPSICOLOGIA Y NEUROTERAPIA", "lat": 19.02213529, "lng": -98.23463108, "municipio": "Puebla", "tipo": "salud"}, {"nombre": "CENTRO DE NUTRICION Y BELLEZA", "lat": 19.00819602, "lng": -98.23922985, "municipio": "Puebla", "tipo": "salud"}, {"nombre": "CENTRO DE ODONTOLOGIA DENTAL AVANZADO ANGELOPOLIS", "lat": 19.03621095, "lng": -98.23392527, "municipio": "Puebla", "tipo": "salud"}, {"nombre": "CENTRO DE ORIENTACION PSICOLOGICA", "lat": 18.9694273, "lng": -98.18436597, "municipio": "Puebla", "tipo": "salud"}, {"nombre": "CENTRO DE ORIENTACION PSICOLOGICA INTEGRAL SIN NOMBRE", "lat": 18.48201291, "lng": -97.39533168, "municipio": "Tehuacán", "tipo": "salud"}, {"nombre": "CENTRO DE ORIENTACION Y EQUINOTERAPIA VIVEKA", "lat": 19.05169187, "lng": -98.29527785, "municipio": "San Andrés Cholula", "tipo": "salud"}, {"nombre": "CENTRO DE PEDIATRIA", "lat": 19.05874796, "lng": -98.30685362, "municipio": "San Pedro Cholula", "tipo": "salud"}, {"nombre": "CENTRO DE PODOLOGIA DE TEHUACAN", "lat": 18.46277899, "lng": -97.38852239, "municipio": "Tehuacán", "tipo": "salud"}, {"nombre": "CENTRO DE PSICOLOGIA", "lat": 18.83718976, "lng": -97.54259935, "municipio": "Palmar de Bravo", "tipo": "salud"}, {"nombre": "CENTRO DE PSICOLOGIA", "lat": 19.22755442, "lng": -97.80173158, "municipio": "Rafael Lara Grajales", "tipo": "salud"}, {"nombre": "CENTRO DE PSICOLOGIA INEGRAL EL AJOLOTE FELIZ", "lat": 19.04164484, "lng": -98.11535387, "municipio": "Amozoc", "tipo": "salud"}, {"nombre": "CENTRO DE PSICOLOGIA INFANTIL", "lat": 19.05981807, "lng": -98.22949086, "municipio": "Puebla", "tipo": "salud"}, {"nombre": "CENTRO DE PSICOLOGIA INTEGRAL", "lat": 19.07816925, "lng": -97.96576679, "municipio": "Tepatlaxco de Hidalgo", "tipo": "salud"}, {"nombre": "CENTRO DE PSICOTERAPIA", "lat": 18.98866172, "lng": -98.20062667, "municipio": "Puebla", "tipo": "salud"}, {"nombre": "CENTRO DE QUIROPRAXIA INKA SOMAZAEN", "lat": 19.08686206, "lng": -98.12289195, "municipio": "Puebla", "tipo": "salud"}, {"nombre": "CENTRO DE RADIODIAGNOSTICO ANGELES DE TEHUACAN", "lat": 18.4559732, "lng": -97.39657636, "municipio": "Tehuacán", "tipo": "salud"}, {"nombre": "CENTRO DE RADIODIAGNOSTICO PUEBLA", "lat": 20.17635282, "lng": -98.04545818, "municipio": "Huauchinango", "tipo": "salud"}, {"nombre": "CENTRO DE RADIOLOGIA DENTAL", "lat": 18.46333681, "lng": -97.39313056, "municipio": "Tehuacán", "tipo": "salud"}, {"nombre": "CENTRO DE RADIOLOGIA DENTAL", "lat": 19.02749557, "lng": -98.23327345, "municipio": "San Andrés Cholula", "tipo": "salud"}, {"nombre": "CENTRO DE RADIOLOGIA DENTAL", "lat": 19.0212408, "lng": -98.19259053, "municipio": "Puebla", "tipo": "salud"}, {"nombre": "CENTRO DE RADIOLOGIA DENTAL", "lat": 19.04897223, "lng": -98.21911243, "municipio": "Puebla", "tipo": "salud"}, {"nombre": "CENTRO DE RADIOLOGIA DENTAL", "lat": 19.04513348, "lng": -98.20021587, "municipio": "Puebla", "tipo": "salud"}, {"nombre": "CENTRO DE RADIOLOGIA DENTAL ROENTGEN", "lat": 18.46538827, "lng": -97.39305912, "municipio": "Tehuacán", "tipo": "salud"}, {"nombre": "CENTRO DE RADIOLOGIA DENTAL XOCOR", "lat": 19.1575103, "lng": -98.40870861, "municipio": "Huejotzingo", "tipo": "salud"}, {"nombre": "CENTRO DE RADIOLOGIA DIAGNOSTICA", "lat": 19.04549271, "lng": -98.23476708, "municipio": "Puebla", "tipo": "salud"}, {"nombre": "CENTRO DE RADIOLOGIA E IMAGEN DE TEXMELUCAN", "lat": 19.2820922, "lng": -98.43745621, "municipio": "San Martín Texmelucan", "tipo": "salud"}, {"nombre": "CENTRO DE RADIOLOGIA LA INMACULADA", "lat": 19.83960013, "lng": -98.03197515, "municipio": "Chignahuapan", "tipo": "salud"}, {"nombre": "CENTRO DE RAHABILITACION TERAPIA FISICA Y ORTOPEDIA", "lat": 20.28189427, "lng": -97.95793502, "municipio": "Xicotepec", "tipo": "salud"}, {"nombre": "CENTRO DE RAHABILITACION Y EDUCACION ESPECIAL", "lat": 18.98835587, "lng": -98.1774474, "municipio": "Puebla", "tipo": "salud"}, {"nombre": "CENTRO DE REABILITACION DE SIERRA", "lat": 19.74471445, "lng": -97.59144249, "municipio": "Zacapoaxtla", "tipo": "salud"}, {"nombre": "CENTRO DE REHABILITACION", "lat": 18.08976078, "lng": -98.12060304, "municipio": "Guadalupe", "tipo": "salud"}, {"nombre": "CENTRO DE REHABILITACION A TRAVES DEL DEPORTE", "lat": 18.37885115, "lng": -97.26668023, "municipio": "Ajalpan", "tipo": "salud"}, {"nombre": "CENTRO DE REHABILITACION ADICCION", "lat": 19.27382254, "lng": -98.44215764, "municipio": "San Martín Texmelucan", "tipo": "salud"}, {"nombre": "CENTRO DE REHABILITACION AVANZADA EN FISIOTERAPIA", "lat": 19.03364724, "lng": -98.20490873, "municipio": "Puebla", "tipo": "salud"}, {"nombre": "CENTRO DE REHABILITACION CONTRA ADICIONES DE LA MIXTECA AC MI NUEVA ALBORADA", "lat": 18.20429029, "lng": -98.0490755, "municipio": "Acatlán", "tipo": "salud"}, {"nombre": "CENTRO DE REHABILITACION CONTRA LAS ADICCIONES", "lat": 19.06146752, "lng": -98.20375317, "municipio": "Puebla", "tipo": "salud"}, {"nombre": "CENTRO DE REHABILITACION DE FISIOTERAPIA ASHLYE", "lat": 18.88179445, "lng": -97.72415423, "municipio": "Tecamachalco", "tipo": "salud"}, {"nombre": "CENTRO DE REHABILITACION E INCLUSION INFANTIL TELETON PUEBLA", "lat": 19.01817737, "lng": -98.25673616, "municipio": "San Andrés Cholula", "tipo": "salud"}, {"nombre": "CENTRO DE REHABILITACION EL PARAJE TLAHUAPAN FINCA NUEVO AMANECER", "lat": 19.33905237, "lng": -98.56489091, "municipio": "Tlahuapan", "tipo": "salud"}, {"nombre": "CENTRO DE REHABILITACION EN ADICCIONES CAMINEMOS JUNTOS ", "lat": 19.28898088, "lng": -98.43393046, "municipio": "San Martín Texmelucan", "tipo": "salud"}, {"nombre": "CENTRO DE REHABILITACION FISICA FUNDACION MARIA GLORIA", "lat": 19.03258053, "lng": -98.26633829, "municipio": "San Andrés Cholula", "tipo": "salud"}, {"nombre": "CENTRO DE REHABILITACION FISICA MAYFER", "lat": 19.28407012, "lng": -98.43740964, "municipio": "San Martín Texmelucan", "tipo": "salud"}, {"nombre": "CENTRO DE REHABILITACION FISIO ACTIVE", "lat": 20.38654238, "lng": -97.87944109, "municipio": "Xicotepec", "tipo": "salud"}, {"nombre": "CENTRO DE REHABILITACION FISIOLIFE", "lat": 20.27131286, "lng": -97.96421634, "municipio": "Xicotepec", "tipo": "salud"}, {"nombre": "CENTRO DE REHABILITACION FISIOT RECUPERATE", "lat": 20.21270012, "lng": -98.00525101, "municipio": "Juan Galindo", "tipo": "salud"}, {"nombre": "CENTRO DE REHABILITACION FISIOTECNOLOGICA FENIX", "lat": 18.89453876, "lng": -97.73917039, "municipio": "Tecamachalco", "tipo": "salud"}, {"nombre": "CENTRO DE REHABILITACION FUERZA Y VOLUNTAD", "lat": 19.28369527, "lng": -98.42740366, "municipio": "San Martín Texmelucan", "tipo": "salud"}, {"nombre": "CENTRO DE REHABILITACION INTEGRAL", "lat": 19.92856138, "lng": -97.96139101, "municipio": "Zacatlán", "tipo": "salud"}, {"nombre": "CENTRO DE REHABILITACION INTEGRAL", "lat": 19.07022715, "lng": -98.30117785, "municipio": "San Pedro Cholula", "tipo": "salud"}, {"nombre": "CENTRO DE REHABILITACION INTEGRAL", "lat": 19.21029302, "lng": -98.3820136, "municipio": "Huejotzingo", "tipo": "salud"}, {"nombre": "CENTRO DE REHABILITACION INTEGRAL CRI", "lat": 19.29320182, "lng": -98.4389512, "municipio": "San Martín Texmelucan", "tipo": "salud"}, {"nombre": "CENTRO DE REHABILITACION INTEGRAL DE TEHUACAN", "lat": 18.45850767, "lng": -97.40157613, "municipio": "Tehuacán", "tipo": "salud"}, {"nombre": "CENTRO DE REHABILITACION INTEGRAL DE TEPEACA", "lat": 18.96033381, "lng": -97.91351853, "municipio": "Tepeaca", "tipo": "salud"}, {"nombre": "CENTRO DE REHABILITACION INTEGRAL DE TEZIUTLAN", "lat": 19.79563294, "lng": -97.36951029, "municipio": "Teziutlán", "tipo": "salud"}, {"nombre": "CENTRO DE REHABILITACION INTEGRAL DEL SISTEMA DIF ESTADO DE PUEBLA", "lat": 18.68566703, "lng": -97.66198262, "municipio": "Tlacotepec de Benito Juárez", "tipo": "salud"}, {"nombre": "CENTRO DE REHABILITACION INTEGRAL HUEJOTZINGO", "lat": 19.14712705, "lng": -98.40426213, "municipio": "Huejotzingo", "tipo": "salud"}, {"nombre": "CENTRO DE REHABILITACION INTEGRAL INFANTIL", "lat": 19.03393982, "lng": -98.25717629, "municipio": "San Andrés Cholula", "tipo": "salud"}, {"nombre": "CENTRO DE REHABILITACION INTEGRAL LIBRES", "lat": 19.4717453, "lng": -97.68269816, "municipio": "Libres", "tipo": "salud"}, {"nombre": "CENTRO DE REHABILITACION INTEGRAL MUNICIPAL DE ATLIXCO", "lat": 18.90048965, "lng": -98.44449026, "municipio": "Atlixco", "tipo": "salud"}, {"nombre": "CENTRO DE REHABILITACION INTEGRAL PEQUEÑOS LABRADORES", "lat": 19.11464883, "lng": -97.94974836, "municipio": "Acajete", "tipo": "salud"}, {"nombre": "CENTRO DE REHABILITACION INTEGRAL XIUTETELCO", "lat": 19.79370243, "lng": -97.32634535, "municipio": "Xiutetelco", "tipo": "salud"}, {"nombre": "CENTRO DE REHABILITACION OLIN", "lat": 18.46617317, "lng": -97.39143567, "municipio": "Tehuacán", "tipo": "salud"}, {"nombre": "CENTRO DE REHABILITACION PERFORMANCE", "lat": 18.90259272, "lng": -98.44260894, "municipio": "Atlixco", "tipo": "salud"}, {"nombre": "CENTRO DE REHABILITACION PLENUS", "lat": 19.24847894, "lng": -98.46106059, "municipio": "San Martín Texmelucan", "tipo": "salud"}, {"nombre": "CENTRO DE REHABILITACION REFORMA HAZLO POR TI", "lat": 18.89597232, "lng": -98.44059666, "municipio": "Atlixco", "tipo": "salud"}, {"nombre": "CENTRO DE REHABILITACION REHABITA", "lat": 18.98889849, "lng": -97.4418238, "municipio": "Chalchicomula de Sesma", "tipo": "salud"}, {"nombre": "CENTRO DE REHABILITACION SHEKINAH", "lat": 20.47075067, "lng": -97.71540778, "municipio": "Venustiano Carranza", "tipo": "salud"}, {"nombre": "CENTRO DE REHABILITACION UROBORUS", "lat": 18.95402166, "lng": -97.89224841, "municipio": "Tepeaca", "tipo": "salud"}, {"nombre": "CENTRO DE REHABILITACION Y HABILITACION CREA", "lat": 19.25011401, "lng": -98.40546435, "municipio": "San Martín Texmelucan", "tipo": "salud"}, {"nombre": "CENTRO DE REHABILITACIONI INTEGRA", "lat": 19.83864703, "lng": -97.45511758, "municipio": "Atempan", "tipo": "salud"}, {"nombre": "CENTRO DE RETINA Y ENFERMEDADES OFTALMOLOGIA", "lat": 19.05028513, "lng": -98.15646921, "municipio": "Puebla", "tipo": "salud"}, {"nombre": "CENTRO DE RETINAS Y ENFERMEDADES OPTALMOLICAS", "lat": 19.02126341, "lng": -98.26604853, "municipio": "San Andrés Cholula", "tipo": "salud"}, {"nombre": "CENTRO DE SALUD", "lat": 20.50551267, "lng": -97.66717705, "municipio": "Venustiano Carranza", "tipo": "salud"}, {"nombre": "CENTRO DE SALUD", "lat": 19.26240433, "lng": -98.47376464, "municipio": "San Salvador el Verde", "tipo": "salud"}, {"nombre": "CENTRO DE SALUD", "lat": 19.1168584, "lng": -98.37151074, "municipio": "Juan C. Bonilla", "tipo": "salud"}, {"nombre": "CENTRO DE SALUD", "lat": 19.29198754, "lng": -98.53909657, "municipio": "Tlahuapan", "tipo": "salud"}, {"nombre": "CENTRO DE SALUD", "lat": 18.47287882, "lng": -97.11892654, "municipio": "Vicente Guerrero", "tipo": "salud"}, {"nombre": "CENTRO DE SALUD", "lat": 18.641303, "lng": -98.68995833, "municipio": "Tepexco", "tipo": "salud"}, {"nombre": "CENTRO DE SALUD", "lat": 19.07503612, "lng": -98.27132641, "municipio": "San Pedro Cholula", "tipo": "salud"}, {"nombre": "CENTRO DE SALUD", "lat": 19.26283188, "lng": -98.45836789, "municipio": "San Martín Texmelucan", "tipo": "salud"}, {"nombre": "CENTRO DE SALUD", "lat": 18.61582175, "lng": -98.17388022, "municipio": "Coatzingo", "tipo": "salud"}, {"nombre": "CENTRO DE SALUD", "lat": 19.11452867, "lng": -97.98236509, "municipio": "Acajete", "tipo": "salud"}, {"nombre": "CENTRO DE SALUD", "lat": 19.25466387, "lng": -98.40588802, "municipio": "San Martín Texmelucan", "tipo": "salud"}, {"nombre": "CENTRO DE SALUD", "lat": 19.95535353, "lng": -97.95682353, "municipio": "Zacatlán", "tipo": "salud"}, {"nombre": "CENTRO DE SALUD", "lat": 18.64939893, "lng": -98.37197218, "municipio": "Epatlán", "tipo": "salud"}, {"nombre": "CENTRO DE SALUD", "lat": 18.99831563, "lng": -97.41374502, "municipio": "Chalchicomula de Sesma", "tipo": "salud"}, {"nombre": "CENTRO DE SALUD", "lat": 20.1301883, "lng": -97.20905535, "municipio": "Acateno", "tipo": "salud"}, {"nombre": "CENTRO DE SALUD", "lat": 19.19355114, "lng": -98.41574264, "municipio": "Huejotzingo", "tipo": "salud"}, {"nombre": "CENTRO DE SALUD", "lat": 18.76828933, "lng": -98.53790508, "municipio": "Huaquechula", "tipo": "salud"}, {"nombre": "CENTRO DE SALUD", "lat": 18.54476332, "lng": -98.55386975, "municipio": "Atzala", "tipo": "salud"}, {"nombre": "CENTRO DE SALUD", "lat": 19.02382904, "lng": -97.9691079, "municipio": "Acajete", "tipo": "salud"}, {"nombre": "CENTRO DE SALUD", "lat": 19.91366288, "lng": -97.79634244, "municipio": "Cuautempan", "tipo": "salud"}, {"nombre": "CENTRO DE SALUD", "lat": 18.20192426, "lng": -98.26334201, "municipio": "Chinantla", "tipo": "salud"}, {"nombre": "CENTRO DE SALUD 1 NUCLEO BASICO GENERAL FELIPE ANGELES", "lat": 18.98952471, "lng": -97.70954358, "municipio": "General Felipe Ángeles", "tipo": "salud"}, {"nombre": "CENTRO DE SALUD 1 NUCLEO BASICO LA PURISIMA DE BRAVO", "lat": 18.82938116, "lng": -97.57510077, "municipio": "Palmar de Bravo", "tipo": "salud"}, {"nombre": "CENTRO DE SALUD 1 NUCLEO BASICO SAN ANTONIO PORTEZUELO", "lat": 18.9961391, "lng": -97.71310478, "municipio": "General Felipe Ángeles", "tipo": "salud"}, {"nombre": "CENTRO DE SALUD 1 NUCLEO BASICO SAN FELIPE XOCHILTEPEC", "lat": 18.64898225, "lng": -98.34103895, "municipio": "Xochiltepec", "tipo": "salud"}, {"nombre": "CENTRO DE SALUD 1 NUCLEO BASICO SAN FRANCISCO XITLAMA MUNICIPIO DE ZOQUITLAN", "lat": 18.30663916, "lng": -97.01206374, "municipio": "Zoquitlán", "tipo": "salud"}, {"nombre": "CENTRO DE SALUD 1 NUCLEO BASICO SAN JUAN TEJUPA", "lat": 18.8552743, "lng": -98.54132944, "municipio": "Atzitzihuacán", "tipo": "salud"}, {"nombre": "CENTRO DE SALUD 1 NUCLEO BASICO SANTA CLARA HUITZILTEPEC", "lat": 18.76953412, "lng": -97.88136232, "municipio": "Huitziltepec", "tipo": "salud"}, {"nombre": "CENTRO DE SALUD 2 DE MARZO", "lat": 19.08749343, "lng": -98.11947771, "municipio": "Puebla", "tipo": "salud"}, {"nombre": "CENTRO DE SALUD 2 MODULOS BASICOS DE SAN SIMON DE BRAVO QUECHOLAC", "lat": 18.96653317, "lng": -97.71249049, "municipio": "Quecholac", "tipo": "salud"}, {"nombre": "CENTRO DE SALUD 2 NUCLEO BASICO SAN JUAN ACOZAC", "lat": 18.96288269, "lng": -97.8252546, "municipio": "Los Reyes de Juárez", "tipo": "salud"}, {"nombre": "CENTRO DE SALUD 2 NUCLEOS BASICOS", "lat": 18.28784988, "lng": -97.28249616, "municipio": "San José Miahuatlán", "tipo": "salud"},